{"ES9080010001010E": {"eu_code": "ES9080010001010E", "dc_code": "DABR", "nom": "ABRERA", "population_real": 63029, "configuration": ["P", "SP", "O3", "GAC", "UV"], "industriesTotalInfluent": {"q": 5069.579205479452, "Trimetoprim": 0.03621178914063928}, "efluent": {}, "influent": {}, "cabal_observat": [], "compounds_effluent": {"q": 20322.59720547945, "Trimetoprim": 0.0}, "id_swat": "1092", "lat": 41.5038258160794, "long": 1.91455603567021}, "ES9080120001010E": {"eu_code": "ES9080120001010E", "dc_code": "DAVI", "nom": "AVINY\u00d3", "population_real": 2190, "configuration": ["P", "SP"], "industriesTotalInfluent": {"q": 4.035616438356165}, "efluent": {}, "influent": {}, "cabal_observat": [], "compounds_effluent": {"q": 534.0156164383562, "Trimetoprim": 0.06456950675882514}, "id_swat": "960", "lat": 41.8502276613295, "long": 1.97167714830975}, "ES9080140001010E": {"eu_code": "ES9080140001010E", "dc_code": "DAGF", "nom": "AIGUAFREDA", "population_real": 4626, "configuration": ["P", "SN"], "industriesTotalInfluent": {}, "efluent": {}, "influent": {}, "cabal_observat": [], "compounds_effluent": {"q": 1119.492, "Trimetoprim": 0.06819601330281395}, "id_swat": "394", "lat": 41.7472020341304, "long": 2.26316538400237}, "ES9080180001010E": {"eu_code": "ES9080180001010E", "dc_code": "DBLS", "nom": "BALSARENY", "population_real": 3410, "configuration": ["P", "SC"], "industriesTotalInfluent": {}, "efluent": {}, "influent": {}, "cabal_observat": [], "compounds_effluent": {"q": 825.22, "Trimetoprim": 0.05026986713415382}, "id_swat": "1147", "lat": 41.8480701325454, "long": 1.88077576240908}, "ES9080180002010E": {"eu_code": "ES9080180002010E", "dc_code": "DNAV", "nom": "NAV\u00c0S", "population_real": 5959, "configuration": ["P", "SC"], "industriesTotalInfluent": {}, "efluent": {}, "influent": {}, "cabal_observat": [], "compounds_effluent": {"q": 1442.078, "Trimetoprim": 0.08784696136434682}, "id_swat": "967", "lat": 41.8932602116709, "long": 1.88873708913272}, "ES9080200001040E": {"eu_code": "ES9080200001040E", "dc_code": "DBGS", "nom": "BEGUES", "population_real": 5898, "configuration": ["P", "SP"], "industriesTotalInfluent": {}, "efluent": {}, "influent": {}, "cabal_observat": [], "compounds_effluent": {"q": 1427.316, "Trimetoprim": 0.17389541135321948}, "id_swat": "782", "lat": 41.3375407584377, "long": 1.89303114144849}, "ES9080220001010E": {"eu_code": "ES9080220001010E", "dc_code": "DBER", "nom": "BERGA", "population_real": 16596, "configuration": ["P", "SC"], "industriesTotalInfluent": {}, "efluent": {}, "influent": {}, "cabal_observat": [], "compounds_effluent": {"q": 4016.232, "Trimetoprim": 0.2446565146505621}, "id_swat": "612", "lat": 42.072860623286, "long": 1.8689375521904}, "ES9080230004010E": {"eu_code": "ES9080230004010E", "dc_code": "DBIR", "nom": "BIGUES I RIELLS", "population_real": 7807, "configuration": ["P", "SC"], "industriesTotalInfluent": {"q": 0.4821917808219178, "Trimetoprim": 0.0}, "efluent": {}, "influent": {}, "cabal_observat": [], "compounds_effluent": {"q": 1889.7761917808218, "Trimetoprim": 0.11508998613382371}, "id_swat": "476", "lat": 41.669090332892, "long": 2.21697063978222}, "ES9080310001010E": {"eu_code": "ES9080310001010E", "dc_code": "DCAF", "nom": "CALAF", "population_real": 3435, "configuration": ["P", "SN"], "industriesTotalInfluent": {"q": 19.76164383561644, "Trimetoprim": 0.0}, "efluent": {}, "influent": {}, "cabal_observat": [], "compounds_effluent": {"q": 851.0316438356165, "Trimetoprim": 0.050638414547160816}, "id_swat": "923", "lat": 41.717227846849, "long": 1.52615593119981}, "ES9080330001010E": {"eu_code": "ES9080330001010E", "dc_code": "DCDM", "nom": "CALDES DE MONTBUI", "population_real": 16518, "configuration": ["P", "SP"], "industriesTotalInfluent": {"q": 3.4602739726027396}, "efluent": {}, "influent": {}, "cabal_observat": [], "compounds_effluent": {"q": 4000.8162739726026, "Trimetoprim": 0.4870132934439606}, "id_swat": "214", "lat": 41.6099760473036, "long": 2.17848335828719}, "ES9080420001010E": {"eu_code": "ES9080420001010E", "dc_code": "DCIS", "nom": "C\u00c0NOVES I SAMAL\u00daS", "population_real": 4040, "configuration": ["P", "SP"], "industriesTotalInfluent": {}, "efluent": {}, "influent": {}, "cabal_observat": [], "compounds_effluent": {"q": 977.68, "Trimetoprim": 0.1191145238838601}, "id_swat": "220", "lat": 41.6849886895415, "long": 2.35545479197214}, "ES9080440001010E": {"eu_code": "ES9080440001010E", "dc_code": "DCAP", "nom": "VALLBONA D'ANOIA", "population_real": 12382, "configuration": ["P", "SP"], "industriesTotalInfluent": {"q": 2086.6767123287673, "Trimetoprim": 0.0021486005753424656}, "efluent": {}, "influent": {}, "cabal_observat": [], "compounds_effluent": {"q": 5083.120712328768, "Trimetoprim": 0.3650683684002184}, "id_swat": "1085", "lat": 41.5237446871542, "long": 1.69237380675159}, "ES9080460001010E": {"eu_code": "ES9080460001010E", "dc_code": "DRDV", "nom": "ROCA DEL VALL\u00c8S, LA", "population_real": 24356, "configuration": ["P", "SP"], "industriesTotalInfluent": {"q": 309513.74520547944, "Trimetoprim": 0.0}, "efluent": {}, "influent": {}, "cabal_observat": [], "compounds_effluent": {"q": 315407.89720547944, "Trimetoprim": 0.7181072632958654}, "id_swat": "266", "lat": 41.6163634179142, "long": 2.36049480584829}, "ES9080470002010E": {"eu_code": "ES9080470002010E", "dc_code": "DCDN", "nom": "CARDONA", "population_real": 5164, "configuration": ["P", "SN"], "industriesTotalInfluent": {"q": 880.8219178082192}, "efluent": {}, "influent": {}, "cabal_observat": [], "compounds_effluent": {"q": 2130.509917808219, "Trimetoprim": 0.07612715363072445}, "id_swat": "944", "lat": 41.9180656792916, "long": 1.69835914685156}, "ES9080480001010E": {"eu_code": "ES9080480001010E", "dc_code": "DCARM", "nom": "CARME", "population_real": 801, "configuration": ["P", "SN"], "industriesTotalInfluent": {}, "efluent": {}, "influent": {}, "cabal_observat": [], "compounds_effluent": {"q": 193.84199999999998, "Trimetoprim": 0.01180825911274405}, "id_swat": "693", "lat": 41.5334327146674, "long": 1.6260494448728}, "ES9080490002010E": {"eu_code": "ES9080490002010E", "dc_code": "DCSRS", "nom": "CASSERRES", "population_real": 1270, "configuration": ["P", "SC"], "industriesTotalInfluent": {}, "efluent": {}, "influent": {}, "cabal_observat": [], "compounds_effluent": {"q": 307.34, "Trimetoprim": 0.01872220858075524}, "id_swat": "1156", "lat": 42.0209848659601, "long": 1.84618528150139}, "ES9080510004010E": {"eu_code": "ES9080510004010E", "dc_code": "DCDV", "nom": "CASTELLAR DEL VALL\u00c8S", "population_real": 22626, "configuration": ["P", "SN"], "industriesTotalInfluent": {}, "efluent": {}, "influent": {}, "cabal_observat": [], "compounds_effluent": {"q": 5475.492, "Trimetoprim": 0.3335501506678488}, "id_swat": "249", "lat": 41.6013573452546, "long": 2.07667977911655}, "ES9080530002010E": {"eu_code": "ES9080530002010E", "dc_code": "DCIV", "nom": "CASTELLBELL I EL VILAR", "population_real": 13186, "configuration": ["P", "SP"], "industriesTotalInfluent": {"q": 1868.7479452054795, "Trimetoprim": 0.06085024219178081}, "efluent": {}, "influent": {}, "cabal_observat": [], "compounds_effluent": {"q": 5059.759945205479, "Trimetoprim": 0.3887745120376604}, "id_swat": "1098", "lat": 41.6230053823484, "long": 1.86550743422461}, "ES9080580004010E": {"eu_code": "ES9080580004010E", "dc_code": "DAR\u00c7G", "nom": "ARBO\u00c7, L' (GORNAL)", "population_real": 5830, "configuration": ["P", "SC"], "industriesTotalInfluent": {"q": 2.137972602739726}, "efluent": {}, "influent": {}, "cabal_observat": [], "compounds_effluent": {"q": 1412.9979726027395, "Trimetoprim": 0.08594525671323074}, "id_swat": "843", "lat": 41.2575844638559, "long": 1.58787499161662}, "ES9080670001010E": {"eu_code": "ES9080670001010E", "dc_code": "DCTS", "nom": "CENTELLES", "population_real": 11626, "configuration": ["P", "SP"], "industriesTotalInfluent": {"q": 79.4958904109589}, "efluent": {}, "influent": {}, "cabal_observat": [], "compounds_effluent": {"q": 2892.9878904109587, "Trimetoprim": 0.34277857788954386}, "id_swat": "480", "lat": 41.7927895585058, "long": 2.23556062694416}, "ES9080750005010E": {"eu_code": "ES9080750005010E", "dc_code": "DDOS", "nom": "CAN MASSUET- EL FAR", "population_real": 2281, "configuration": ["P", "SN"], "industriesTotalInfluent": {}, "efluent": {}, "influent": {}, "cabal_observat": [], "compounds_effluent": {"q": 552.002, "Trimetoprim": 0.03362626596275803}, "id_swat": "488", "lat": 41.5996784423008, "long": 2.41988987936567}, "ES9080830001010E": {"eu_code": "ES9080830001010E", "dc_code": "DFOL", "nom": "FOLGUEROLES", "population_real": 2058, "configuration": ["P", "SC"], "industriesTotalInfluent": {}, "efluent": {}, "influent": {}, "cabal_observat": [], "compounds_effluent": {"q": 498.036, "Trimetoprim": 0.03033882303873565}, "id_swat": "170", "lat": 41.9455996499422, "long": 2.30992589511918}, "ES9080880001010E": {"eu_code": "ES9080880001010E", "dc_code": "DGAR", "nom": "GARRIGA, LA", "population_real": 16632, "configuration": ["P", "SP"], "industriesTotalInfluent": {"q": 554.4410958904109, "Trimetoprim": 0.007392917572602739}, "efluent": {}, "influent": {}, "cabal_observat": [], "compounds_effluent": {"q": 4579.385095890411, "Trimetoprim": 0.4903745937089359}, "id_swat": "478", "lat": 41.6636656461092, "long": 2.28765970935551}, "ES9080910001010E": {"eu_code": "ES9080910001010E", "dc_code": "DGEL", "nom": "GELIDA", "population_real": 6151, "configuration": ["P", "SN", "O3", "SF", "UV"], "industriesTotalInfluent": {"q": 15.121917808219179, "Trimetoprim": 1.1724657534246574e-05}, "efluent": {}, "influent": {}, "cabal_observat": [], "compounds_effluent": {"q": 1503.6639178082191, "Trimetoprim": 0.0}, "id_swat": "1173", "lat": 41.4417753057254, "long": 1.85389854546824}, "ES9080920002010E": {"eu_code": "ES9080920002010E", "dc_code": "DGRN", "nom": "GIRONELLA", "population_real": 3356, "configuration": ["P", "SC"], "industriesTotalInfluent": {}, "efluent": {}, "influent": {}, "cabal_observat": [], "compounds_effluent": {"q": 812.1519999999999, "Trimetoprim": 0.04947380472205872}, "id_swat": "974", "lat": 42.0194306165023, "long": 1.88741953857507}, "ES9080960001010E": {"eu_code": "ES9080960001010E", "dc_code": "DGRA", "nom": "GRANOLLERS", "population_real": 92576, "configuration": ["P", "SP"], "industriesTotalInfluent": {"q": 187.9013698630137, "Trimetoprim": 0.0007969972602739726}, "efluent": {}, "influent": {}, "cabal_observat": [], "compounds_effluent": {"q": 22591.293369863015, "Trimetoprim": 2.7294916404627747}, "id_swat": "475", "lat": 41.5694093670901, "long": 2.2712836315783}, "ES9080980004010E": {"eu_code": "ES9080980004010E", "dc_code": "DSSG", "nom": "SANT SALVADOR DE GUARDIOLA", "population_real": 2970, "configuration": ["P", "SN"], "industriesTotalInfluent": {}, "efluent": {}, "influent": {}, "cabal_observat": [], "compounds_effluent": {"q": 718.74, "Trimetoprim": 0.04378343266523074}, "id_swat": "1104", "lat": 41.6948480637152, "long": 1.7935892861875}, "ES9080990001010E": {"eu_code": "ES9080990001010E", "dc_code": "DBAG", "nom": "BAG\u00c0/GUARDIOLA B.", "population_real": 3196, "configuration": ["P", "SC"], "industriesTotalInfluent": {}, "efluent": {}, "influent": {}, "cabal_observat": [], "compounds_effluent": {"q": 773.432, "Trimetoprim": 0.04711510127881397}, "id_swat": "1166", "lat": 42.2292068749554, "long": 1.87846504884523}, "ES9081050001010E": {"eu_code": "ES9081050001010E", "dc_code": "DLLL", "nom": "LLAGOSTA, LA", "population_real": 138714, "configuration": ["P", "SP"], "industriesTotalInfluent": {"q": 31.50821917808219, "Trimetoprim": 0.0}, "efluent": {}, "influent": {}, "cabal_observat": [], "compounds_effluent": {"q": 33600.29621917808, "Trimetoprim": 4.089814867828161}, "id_swat": "465", "lat": 41.5048928898877, "long": 2.20503604114105}, "ES9081070012010E": {"eu_code": "ES9081070012010E", "dc_code": "DSER", "nom": "SANTA EUL\u00c0LIA DE RON\u00c7ANA", "population_real": 16545, "configuration": ["P", "SP"], "industriesTotalInfluent": {"q": 0.0}, "efluent": {}, "influent": {}, "cabal_observat": [], "compounds_effluent": {"q": 4003.89, "Trimetoprim": 0.48780935585605567}, "id_swat": "188", "lat": 41.630697688044, "long": 2.24445033343066}, "ES9081120001010E": {"eu_code": "ES9081120001010E", "dc_code": "DMAN", "nom": "MANLLEU", "population_real": 26622, "configuration": ["P", "SP"], "industriesTotalInfluent": {"q": 9.134246575342466}, "efluent": {}, "influent": {}, "cabal_observat": [], "compounds_effluent": {"q": 6451.658246575342, "Trimetoprim": 0.7849175383257732}, "id_swat": "451", "lat": 41.9931795712537, "long": 2.28574997239525}, "ES9081130006010E": {"eu_code": "ES9081130006010E", "dc_code": "DMAS", "nom": "MANRESA", "population_real": 86721, "configuration": ["P", "SP", "UF", "RO", "AOP"], "industriesTotalInfluent": {}, "efluent": {}, "influent": {}, "cabal_observat": [], "compounds_effluent": {"q": 20986.482, "Trimetoprim": 0.0}, "id_swat": "682", "lat": 41.7045126339898, "long": 1.84313920766297}, "ES9081140002010E": {"eu_code": "ES9081140002010E", "dc_code": "DMRT", "nom": "MARTORELL", "population_real": 32337, "configuration": ["P", "SP", "UF", "RO", "AOP"], "industriesTotalInfluent": {"q": 960.908904109589, "Trimetoprim": 0.014606512315068494}, "efluent": {}, "influent": {}, "cabal_observat": [], "compounds_effluent": {"q": 8786.462904109589, "Trimetoprim": 0.0}, "id_swat": "779", "lat": 41.4823906270665, "long": 1.92969447337829}, "ES9081190002010E": {"eu_code": "ES9081190002010E", "dc_code": "DMSF", "nom": "MASQUEFA", "population_real": 7747, "configuration": ["P", "SP"], "industriesTotalInfluent": {"q": 8.219178082191782}, "efluent": {}, "influent": {}, "cabal_observat": [], "compounds_effluent": {"q": 1882.9931780821917, "Trimetoprim": 0.22841094468521386}, "id_swat": "805", "lat": 41.4858505791191, "long": 1.81573395649704}, "ES9081200001100E": {"eu_code": "ES9081200001100E", "dc_code": "DMTP", "nom": "MATADEPERA", "population_real": 8266, "configuration": ["P", "SC", "UF", "CL"], "industriesTotalInfluent": {}, "efluent": {}, "influent": {}, "cabal_observat": [], "compounds_effluent": {"q": 2000.3719999999998, "Trimetoprim": 0.0}, "id_swat": "232", "lat": 41.5925515589805, "long": 2.03935529218644}, "ES9081250002010E": {"eu_code": "ES9081250002010E", "dc_code": "DMIR", "nom": "MONTCADA", "population_real": 253364, "configuration": ["P", "SC"], "industriesTotalInfluent": {"q": 1129.4453424657536, "Trimetoprim": 0.1335332179109589}, "efluent": {}, "influent": {}, "cabal_observat": [], "compounds_effluent": {"q": 62443.53334246575, "Trimetoprim": 3.7350672052963283}, "id_swat": "391", "lat": 41.4747088260805, "long": 2.18975659266689}, "ES9081270001010E": {"eu_code": "ES9081270001010E", "dc_code": "DMON", "nom": "MONISTROL DE MONTSERRAT", "population_real": 2797, "configuration": ["P", "SN", "UF", "RO", "AOP"], "industriesTotalInfluent": {"q": 200.0, "Trimetoprim": 0.0026668}, "efluent": {}, "influent": {}, "cabal_observat": [], "compounds_effluent": {"q": 876.874, "Trimetoprim": 0.0}, "id_swat": "1096", "lat": 41.5993156359354, "long": 1.85024421571884}, "ES9081360001010E": {"eu_code": "ES9081360001010E", "dc_code": "DMDV", "nom": "MONTORN\u00c8S DEL VALL\u00c8S", "population_real": 66220, "configuration": ["P", "SP"], "industriesTotalInfluent": {"q": 7830.4890410958915, "Trimetoprim": 0.15019192024657535}, "efluent": {}, "influent": {}, "cabal_observat": [], "compounds_effluent": {"q": 23855.729041095892, "Trimetoprim": 1.95241977898425}, "id_swat": "255", "lat": 41.543014051527, "long": 2.23415844945097}, "ES9081380001010E": {"eu_code": "ES9081380001010E", "dc_code": "DMOI", "nom": "MOI\u00c0", "population_real": 5486, "configuration": ["P", "SP"], "industriesTotalInfluent": {"q": 4.0}, "efluent": {}, "influent": {}, "cabal_observat": [], "compounds_effluent": {"q": 1331.6119999999999, "Trimetoprim": 0.16174808862050905}, "id_swat": "1133", "lat": 41.8022960557893, "long": 2.10350864171398}, "ES9081390002010E": {"eu_code": "ES9081390002010E", "dc_code": "DPDV", "nom": "PONT DE VILOMARA, EL", "population_real": 3410, "configuration": ["P", "SN"], "industriesTotalInfluent": {"q": 0.0}, "efluent": {}, "influent": {}, "cabal_observat": [], "compounds_effluent": {"q": 825.22, "Trimetoprim": 0.05026986713415382}, "id_swat": "677", "lat": 41.6943293387548, "long": 1.87123320351212}, "ES9081610008010E": {"eu_code": "ES9081610008010E", "dc_code": "DPIE", "nom": "PIERA", "population_real": 13652, "configuration": ["P", "SN", "UF", "OTHER"], "industriesTotalInfluent": {"q": 9.80821917808219}, "efluent": {}, "influent": {}, "cabal_observat": [], "compounds_effluent": {"q": 3313.5922191780824, "Trimetoprim": 0.0}, "id_swat": "744", "lat": 41.4946606832063, "long": 1.72252555159961}, "ES9081620002010E": {"eu_code": "ES9081620002010E", "dc_code": "DHOP", "nom": "HOSTALETS DE PIEROLA, ELS", "population_real": 1336, "configuration": ["P", "SC"], "industriesTotalInfluent": {"q": 0.6301369863013698, "Trimetoprim": 0.0}, "efluent": {}, "influent": {}, "cabal_observat": [], "compounds_effluent": {"q": 323.94213698630136, "Trimetoprim": 0.019695173751093698}, "id_swat": "719", "lat": 41.5320204324704, "long": 1.79139922662724}, "ES9081660001010E": {"eu_code": "ES9081660001010E", "dc_code": "DPOBL", "nom": "POBLA DE LILLET", "population_real": 1295, "configuration": ["P", "SP"], "industriesTotalInfluent": {}, "efluent": {}, "influent": {}, "cabal_observat": [], "compounds_effluent": {"q": 313.39, "Trimetoprim": 0.03818151198752446}, "id_swat": "986", "lat": 42.2444929554308, "long": 1.97497661265951}, "ES9081710001010E": {"eu_code": "ES9081710001010E", "dc_code": "DPLL", "nom": "PRATS DEL LLU\u00c7AN\u00c8S", "population_real": 2709, "configuration": ["P", "SP"], "industriesTotalInfluent": {}, "efluent": {}, "influent": {}, "cabal_observat": [], "compounds_effluent": {"q": 655.578, "Trimetoprim": 0.07987159534687549}, "id_swat": "1140", "lat": 41.9658369274922, "long": 2.03376762222332}, "ES9081750001010E": {"eu_code": "ES9081750001010E", "dc_code": "DPGR", "nom": "PUIG-REIG", "population_real": 3857, "configuration": ["P", "SC"], "industriesTotalInfluent": {}, "efluent": {}, "influent": {}, "cabal_observat": [], "compounds_effluent": {"q": 933.394, "Trimetoprim": 0.05685949487871885}, "id_swat": "643", "lat": 41.9527037297761, "long": 1.88332597856911}, "ES9081810001010E": {"eu_code": "ES9081810001010E", "dc_code": "DCAR", "nom": "VILANOVA DEL VALL\u00c8S", "population_real": 10032, "configuration": ["P", "SP"], "industriesTotalInfluent": {}, "efluent": {}, "influent": {}, "cabal_observat": [], "compounds_effluent": {"q": 2427.744, "Trimetoprim": 0.2957814117828922}, "id_swat": "264", "lat": 41.5657071944309, "long": 2.30701882903213}, "ES9081830001010E": {"eu_code": "ES9081830001010E", "dc_code": "DRDT", "nom": "RODA DE TER", "population_real": 6438, "configuration": ["P", "SP"], "industriesTotalInfluent": {}, "efluent": {}, "influent": {}, "cabal_observat": [], "compounds_effluent": {"q": 1557.9959999999999, "Trimetoprim": 0.1898166595951216}, "id_swat": "538", "lat": 41.9776288108248, "long": 2.30870404174913}, "ES9081840001010E": {"eu_code": "ES9081840001010E", "dc_code": "DRUB", "nom": "RUB\u00cd", "population_real": 77994, "configuration": ["P", "SP", "UF", "RO", "AOP"], "industriesTotalInfluent": {"q": 4427.610410958903, "Trimetoprim": 0.041641236149771686}, "efluent": {}, "influent": {}, "cabal_observat": [], "compounds_effluent": {"q": 23302.158410958902, "Trimetoprim": 0.0}, "id_swat": "904", "lat": 41.4614726517852, "long": 2.00304884415797}, "ES9081870001010E": {"eu_code": "ES9081870001010E", "dc_code": "DSRS", "nom": "SABADELL/RIU SEC", "population_real": 118675, "configuration": ["P", "SP", "UF"], "industriesTotalInfluent": {"q": 0.0, "Trimetoprim": 0.0}, "efluent": {}, "influent": {}, "cabal_observat": [], "compounds_effluent": {"q": 28719.35, "Trimetoprim": 0.0}, "id_swat": "464", "lat": 41.5185277583616, "long": 2.10308629152521}, "ES9081870004010E": {"eu_code": "ES9081870004010E", "dc_code": "DSRR", "nom": "SABADELL/RIU RIPOLL", "population_real": 100856, "configuration": ["P", "SP"], "industriesTotalInfluent": {"q": 1.084931506849315}, "efluent": {}, "influent": {}, "cabal_observat": [], "compounds_effluent": {"q": 24408.236931506846, "Trimetoprim": 2.9736174308986616}, "id_swat": "392", "lat": 41.524671425682, "long": 2.13693225895934}, "ES9081910004010E": {"eu_code": "ES9081910004010E", "dc_code": "DSLL", "nom": "SALLENT/ART\u00c9S", "population_real": 11699, "configuration": ["P", "SP"], "industriesTotalInfluent": {"q": 0.3082191780821918}, "efluent": {}, "influent": {}, "cabal_observat": [], "compounds_effluent": {"q": 2831.466219178082, "Trimetoprim": 0.34493089478150474}, "id_swat": "638", "lat": 41.7875111985091, "long": 1.90628947058917}, "ES9081980007010E": {"eu_code": "ES9081980007010E", "dc_code": "DSAV", "nom": "SANT ANTONI DE VILAMAJOR", "population_real": 8819, "configuration": ["P", "SP"], "industriesTotalInfluent": {}, "efluent": {}, "influent": {}, "cabal_observat": [], "compounds_effluent": {"q": 2134.198, "Trimetoprim": 0.26001757082469357}, "id_swat": "270", "lat": 41.6604478596806, "long": 2.41236998218904}, "ES9082020006010E": {"eu_code": "ES9082020006010E", "dc_code": "DSCE", "nom": "SANT CELONI", "population_real": 16327, "configuration": ["P", "SP"], "industriesTotalInfluent": {"q": 0.0, "Trimetoprim": 0.0}, "efluent": {}, "influent": {}, "cabal_observat": [], "compounds_effluent": {"q": 3951.134, "Trimetoprim": 0.48138188897321377}, "id_swat": "503", "lat": 41.6922815034345, "long": 2.50803154069838}, "ES9082050005010E": {"eu_code": "ES9082050005010E", "dc_code": "DVVR", "nom": "VALLVIDRERA", "population_real": 13217, "configuration": ["P", "SP"], "industriesTotalInfluent": {"q": 39973.97808219178, "Trimetoprim": 0.0}, "efluent": {}, "influent": {}, "cabal_observat": [], "compounds_effluent": {"q": 43172.492082191784, "Trimetoprim": 0.3896872926170739}, "id_swat": "1077", "lat": 41.4345461320576, "long": 2.0668843695601}, "ES9082100001010E": {"eu_code": "ES9082100001010E", "dc_code": "DSFC", "nom": "SANT FELIU DE CODINES", "population_real": 5620, "configuration": ["P", "SN"], "industriesTotalInfluent": {}, "efluent": {}, "influent": {}, "cabal_observat": [], "compounds_effluent": {"q": 1360.04, "Trimetoprim": 0.082849458443972}, "id_swat": "261", "lat": 41.6924880088928, "long": 2.19662446363875}, "ES9082110001010E": {"eu_code": "ES9082110001010E", "dc_code": "DSFL", "nom": "SANT FELIU DE LLOBREGAT", "population_real": 279959, "configuration": ["P", "SP", "UF", "UV", "CL", "OTHER"], "industriesTotalInfluent": {"q": 290.0, "Trimetoprim": 0.0}, "efluent": {}, "influent": {}, "cabal_observat": [], "compounds_effluent": {"q": 68040.078, "Trimetoprim": 0.0}, "id_swat": "784", "lat": 41.382624890444, "long": 2.03463839011294}, "ES9082130003010E": {"eu_code": "ES9082130003010E", "dc_code": "DNFP", "nom": "NAVARCLES/SANT FRUIT\u00d3S/SANTPEDOR", "population_real": 15675, "configuration": ["P", "SP"], "industriesTotalInfluent": {"q": 584.1013698630136}, "efluent": {}, "influent": {}, "cabal_observat": [], "compounds_effluent": {"q": 4377.4513698630135, "Trimetoprim": 0.4621584559107691}, "id_swat": "694", "lat": 41.7433920107169, "long": 1.87386607645317}, "ES9082220003010E": {"eu_code": "ES9082220003010E", "dc_code": "DSLH", "nom": "SANT LLOREN\u00c7 D'HORTONS", "population_real": 1571, "configuration": ["P", "SC"], "industriesTotalInfluent": {"q": 17.290410958904108, "Trimetoprim": 3.908219178082191e-05}, "efluent": {}, "influent": {}, "cabal_observat": [], "compounds_effluent": {"q": 397.4724109589041, "Trimetoprim": 0.023159519824181348}, "id_swat": "789", "lat": 41.4697026453942, "long": 1.83515196748703}, "ES9082230001010E": {"eu_code": "ES9082230001010E", "dc_code": "DSLS", "nom": "SANT LLOREN\u00c7 SAVALL", "population_real": 2313, "configuration": ["P", "SC"], "industriesTotalInfluent": {"q": 0.714, "Trimetoprim": 0.000679466676}, "efluent": {}, "influent": {}, "cabal_observat": [], "compounds_effluent": {"q": 560.46, "Trimetoprim": 0.03409801344607374}, "id_swat": "251", "lat": 41.6737763430579, "long": 2.05733297545145}, "ES9082360001010E": {"eu_code": "ES9082360001010E", "dc_code": "DSQB", "nom": "SANT QUIRZE DE BESORA", "population_real": 1, "configuration": ["P", "SC"], "industriesTotalInfluent": {"q": 3.0}, "efluent": {}, "influent": {}, "cabal_observat": [], "compounds_effluent": {"q": 3.242, "Trimetoprim": 1.4741896520279714e-05}, "id_swat": "342", "lat": 42.0967619951782, "long": 2.22840948657377}, "ES9082390001010E": {"eu_code": "ES9082390001010E", "dc_code": "DSQS", "nom": "SANT QUIRZE SAFAJA", "population_real": 3451, "configuration": ["P", "SN"], "industriesTotalInfluent": {}, "efluent": {}, "influent": {}, "cabal_observat": [], "compounds_effluent": {"q": 835.1419999999999, "Trimetoprim": 0.05087428489148529}, "id_swat": "194", "lat": 41.7184969415799, "long": 2.17623006331431}, "ES9082400005010E": {"eu_code": "ES9082400005010E", "dc_code": "DSSD", "nom": "SANT SADURN\u00cd D'ANOIA", "population_real": 11790, "configuration": ["P", "SP"], "industriesTotalInfluent": {}, "efluent": {}, "influent": {}, "cabal_observat": [], "compounds_effluent": {"q": 2853.18, "Trimetoprim": 0.3476139199481957}, "id_swat": "759", "lat": 41.4236835881109, "long": 1.81078369588244}, "ES9082540003000E": {"eu_code": "ES9082540003000E", "dc_code": "DSMC", "nom": "SANTA MARIA DE CORC\u00d3-L'ESQUIROL", "population_real": 1654, "configuration": ["P", "SC"], "industriesTotalInfluent": {}, "efluent": {}, "influent": {}, "cabal_observat": [], "compounds_effluent": {"q": 400.268, "Trimetoprim": 0.024383096844542644}, "id_swat": "89", "lat": 42.0178470900562, "long": 2.36700865092537}, "ES9082590005010E": {"eu_code": "ES9082590005010E", "dc_code": "DSMP", "nom": "SANTA MARIA DE PALAUTORDERA", "population_real": 11281, "configuration": ["P", "SP"], "industriesTotalInfluent": {"q": 40.26301369863014, "Trimetoprim": 0.0006237596712328767}, "efluent": {}, "influent": {}, "cabal_observat": [], "compounds_effluent": {"q": 2770.26501369863, "Trimetoprim": 0.3326066817657443}, "id_swat": "192", "lat": 41.6842203609221, "long": 2.46012331861168}, "ES9082680005010E": {"eu_code": "ES9082680005010E", "dc_code": "DCRC", "nom": "CERCS", "population_real": 1218, "configuration": ["P", "SC"], "industriesTotalInfluent": {"q": 0.0}, "efluent": {}, "influent": {}, "cabal_observat": [], "compounds_effluent": {"q": 294.756, "Trimetoprim": 0.017955629961700692}, "id_swat": "1023", "lat": 42.1460017334032, "long": 1.86060862319352}, "ES9082690001010E": {"eu_code": "ES9082690001010E", "dc_code": "DSEV", "nom": "SEVA", "population_real": 1820, "configuration": ["P", "SC"], "industriesTotalInfluent": {}, "efluent": {}, "influent": {}, "cabal_observat": [], "compounds_effluent": {"q": 440.44, "Trimetoprim": 0.026830251666909076}, "id_swat": "580", "lat": 41.8446816107782, "long": 2.27254012910484}, "ES9082740001010E": {"eu_code": "ES9082740001010E", "dc_code": "DSUR", "nom": "S\u00daRIA", "population_real": 6145, "configuration": ["P", "SC"], "industriesTotalInfluent": {}, "efluent": {}, "influent": {}, "cabal_observat": [], "compounds_effluent": {"q": 1487.09, "Trimetoprim": 0.09058895411711886}, "id_swat": "939", "lat": 41.8232421270928, "long": 1.75534618914298}, "ES9082780005010E": {"eu_code": "ES9082780005010E", "dc_code": "DTAL", "nom": "TARADELL", "population_real": 5864, "configuration": ["P", "SP"], "industriesTotalInfluent": {"q": 0.0821917808219178, "Trimetoprim": 1.2294794520547946e-05}, "efluent": {}, "influent": {}, "cabal_observat": [], "compounds_effluent": {"q": 1419.1701917808218, "Trimetoprim": 0.1728929626357364}, "id_swat": "149", "lat": 41.8864614614197, "long": 2.26244225645551}, "ES9082790004050E": {"eu_code": "ES9082790004050E", "dc_code": "DTRS", "nom": "TERRASSA", "population_real": 195160, "configuration": ["P", "SP", "UF", "CL", "OTHER"], "industriesTotalInfluent": {"q": 271.7106849315068, "Trimetoprim": 0.019653689894977167}, "efluent": {}, "influent": {}, "cabal_observat": [], "compounds_effluent": {"q": 47500.43068493151, "Trimetoprim": 0.0}, "id_swat": "1079", "lat": 41.5199471834786, "long": 2.03608008172802}, "ES9082830001010E": {"eu_code": "ES9082830001010E", "dc_code": "DTON", "nom": "TONA", "population_real": 7578, "configuration": ["P", "SC"], "industriesTotalInfluent": {"q": 0.0, "Trimetoprim": 0.0}, "efluent": {}, "influent": {}, "cabal_observat": [], "compounds_effluent": {"q": 1833.876, "Trimetoprim": 0.11171409183067967}, "id_swat": "339", "lat": 41.8634255960681, "long": 2.2390928104616}, "ES9082840001030E": {"eu_code": "ES9082840001030E", "dc_code": "DTOR", "nom": "TORDERA", "population_real": 14017, "configuration": ["P", "SP"], "industriesTotalInfluent": {"q": 235.4986301369863, "Trimetoprim": 0.31934877260273975}, "efluent": {}, "influent": {}, "cabal_observat": [], "compounds_effluent": {"q": 3627.6126301369864, "Trimetoprim": 0.4132807140249735}, "id_swat": "412", "lat": 41.6943402509085, "long": 2.73656204739204}, "ES9082850002010E": {"eu_code": "ES9082850002010E", "dc_code": "DVGE", "nom": "VALL DEL GES-TORELL\u00d3", "population_real": 17122, "configuration": ["P", "SP"], "industriesTotalInfluent": {"q": 37.86301369863014}, "efluent": {}, "influent": {}, "cabal_observat": [], "compounds_effluent": {"q": 4181.38701369863, "Trimetoprim": 0.5048215044404585}, "id_swat": "44", "lat": 42.0485075309604, "long": 2.24741360162669}, "ES9082870007010E": {"eu_code": "ES9082870007010E", "dc_code": "DRBT", "nom": "RIUDEBITLLES", "population_real": 5785, "configuration": ["P", "SC"], "industriesTotalInfluent": {"q": 0.0}, "efluent": {}, "influent": {}, "cabal_observat": [], "compounds_effluent": {"q": 1399.97, "Trimetoprim": 0.08528187136981814}, "id_swat": "1083", "lat": 41.4413336574429, "long": 1.74876996968896}, "ES9082910001010E": {"eu_code": "ES9082910001010E", "dc_code": "DVQR", "nom": "VACARISSES", "population_real": 3305, "configuration": ["P", "SP"], "industriesTotalInfluent": {"q": 61.78904109589041}, "efluent": {}, "influent": {}, "cabal_observat": [], "compounds_effluent": {"q": 861.5990410958904, "Trimetoprim": 0.09744393599904891}, "id_swat": "717", "lat": 41.5731799105457, "long": 1.9194903091982}, "ES9082980001010E": {"eu_code": "ES9082980001010E", "dc_code": "DVIC", "nom": "VIC", "population_real": 44590, "configuration": ["P", "SP"], "industriesTotalInfluent": {"q": 79.68493150684931}, "efluent": {}, "influent": {}, "cabal_observat": [], "compounds_effluent": {"q": 10870.464931506847, "Trimetoprim": 1.314682331678545}, "id_swat": "152", "lat": 41.9545142442354, "long": 2.2712924528248}, "ES9083000004010E": {"eu_code": "ES9083000004010E", "dc_code": "DVDCE", "nom": "VILADECAVALLS (EST)", "population_real": 4955, "configuration": ["P", "SC"], "industriesTotalInfluent": {"q": 43.041095890410965, "Trimetoprim": 0.16321279534246574}, "efluent": {}, "influent": {}, "cabal_observat": [], "compounds_effluent": {"q": 1242.151095890411, "Trimetoprim": 0.0730477293859394}, "id_swat": "708", "lat": 41.5500614299307, "long": 1.96513388348102}, "ES9083020001010E": {"eu_code": "ES9083020001010E", "dc_code": "DIGU", "nom": "IGUALADA", "population_real": 61375, "configuration": ["P", "SP", "O3", "SF", "UV"], "industriesTotalInfluent": {"q": 5267.440136986302, "Trimetoprim": 0.25207925140273973}, "efluent": {}, "influent": {}, "cabal_observat": [], "compounds_effluent": {"q": 20120.1901369863, "Trimetoprim": 0.0}, "id_swat": "698", "lat": 41.5664050252073, "long": 1.64972677599509}, "ES9083050005010E": {"eu_code": "ES9083050005010E", "dc_code": "DVDP", "nom": "VILAFRANCA DEL PENED\u00c8S", "population_real": 52177, "configuration": ["P", "SP"], "industriesTotalInfluent": {"q": 8.041095890410958, "Trimetoprim": 0.00010943013698630136}, "efluent": {}, "influent": {}, "cabal_observat": [], "compounds_effluent": {"q": 12634.87509589041, "Trimetoprim": 1.5383758716658718}, "id_swat": "762", "lat": 41.3306448400096, "long": 1.67369023197371}, "ES9083060001010E": {"eu_code": "ES9083060001010E", "dc_code": "DVLBA", "nom": "VILALBA SASSERRA", "population_real": 3820, "configuration": ["P", "SP"], "industriesTotalInfluent": {}, "efluent": {}, "influent": {}, "cabal_observat": [], "compounds_effluent": {"q": 924.4399999999999, "Trimetoprim": 0.112628089414937}, "id_swat": "398", "lat": 41.669223233843, "long": 2.46896836197463}, "ES9117103001000E": {"eu_code": "ES9117103001000E", "dc_code": "DMDSP", "nom": "PANTANS DE MONTBARBAT", "population_real": 601, "configuration": ["P", "SN"], "industriesTotalInfluent": {}, "efluent": {}, "influent": {}, "cabal_observat": [], "compounds_effluent": {"q": 145.442, "Trimetoprim": 0.008859879808688107}, "id_swat": "172", "lat": 41.7643332936186, "long": 2.75112139871155}, "ES9117142000601E": {"eu_code": "ES9117142000601E", "dc_code": "DQRT1", "nom": "QUART", "population_real": 2903, "configuration": ["P", "SC"], "industriesTotalInfluent": {"q": 14.452054794520548}, "efluent": {}, "influent": {}, "cabal_observat": [], "compounds_effluent": {"q": 716.9780547945205, "Trimetoprim": 0.04279572559837201}, "id_swat": "127", "lat": 41.9665280950152, "long": 2.84406998935898}, "ES9170080001010E": {"eu_code": "ES9170080001010E", "dc_code": "DANG", "nom": "ANGL\u00c8S", "population_real": 5569, "configuration": ["P", "SP"], "industriesTotalInfluent": {"q": 0.7315068493150685}, "efluent": {}, "influent": {}, "cabal_observat": [], "compounds_effluent": {"q": 1348.429506849315, "Trimetoprim": 0.16419524344287545}, "id_swat": "528", "lat": 41.962213233361, "long": 2.66188100916125}, "ES9170090001010E": {"eu_code": "ES9170090001010E", "dc_code": "DARC", "nom": "ARB\u00daCIES", "population_real": 6595, "configuration": ["P", "SP"], "industriesTotalInfluent": {"q": 0.1567123287671233}, "efluent": {}, "influent": {}, "cabal_observat": [], "compounds_effluent": {"q": 1596.146712328767, "Trimetoprim": 0.19444561510248942}, "id_swat": "146", "lat": 41.8146105951966, "long": 2.5228274882457}, "ES9170150001010E": {"eu_code": "ES9170150001010E", "dc_code": "DBAY", "nom": "BANYOLES", "population_real": 28464, "configuration": ["P", "SP"], "industriesTotalInfluent": {"q": 46.71867945205479, "Trimetoprim": 0.0016924407974109588}, "efluent": {}, "influent": {}, "cabal_observat": [], "compounds_effluent": {"q": 6935.006679452054, "Trimetoprim": 0.8392267189552995}, "id_swat": "517", "lat": 42.0881139000831, "long": 2.82885186185117}, "ES9170190001010E": {"eu_code": "ES9170190001010E", "dc_code": "DBES", "nom": "BESAL\u00da", "population_real": 2360, "configuration": ["P", "SN"], "industriesTotalInfluent": {}, "efluent": {}, "influent": {}, "cabal_observat": [], "compounds_effluent": {"q": 571.12, "Trimetoprim": 0.03479087578786012}, "id_swat": "445", "lat": 42.2009847802775, "long": 2.71160739854764}, "ES9170200001010E": {"eu_code": "ES9170200001010E", "dc_code": "DBSC", "nom": "BESCAN\u00d3", "population_real": 4555, "configuration": ["P", "SN"], "industriesTotalInfluent": {"q": 1.3150684931506849}, "efluent": {}, "influent": {}, "cabal_observat": [], "compounds_effluent": {"q": 1103.6250684931506, "Trimetoprim": 0.0671493386498741}, "id_swat": "321", "lat": 41.9722654845228, "long": 2.75907456856439}, "ES9170220001010E": {"eu_code": "ES9170220001010E", "dc_code": "DLBE", "nom": "BISBAL D'EMPORD\u00c0, LA", "population_real": 14933, "configuration": ["P", "SP", "UF"], "industriesTotalInfluent": {"q": 50.02739726027397, "Trimetoprim": 0.2079834198356164}, "efluent": {}, "influent": {}, "cabal_observat": [], "compounds_effluent": {"q": 3663.813397260274, "Trimetoprim": 0.0}, "id_swat": "512", "lat": 41.977089051552, "long": 3.03680026220935}, "ES9170270002010E": {"eu_code": "ES9170270002010E", "dc_code": "DBRD", "nom": "BREDA", "population_real": 3707, "configuration": ["P", "SC"], "industriesTotalInfluent": {"q": 17.361643835616437}, "efluent": {}, "influent": {}, "cabal_observat": [], "compounds_effluent": {"q": 914.4556438356163, "Trimetoprim": 0.05464821040067691}, "id_swat": "201", "lat": 41.7382974074993, "long": 2.56965692075815}, "ES9170330001010E": {"eu_code": "ES9170330001010E", "dc_code": "DCMV", "nom": "CALDES DE MALAVELLA", "population_real": 4558, "configuration": ["P", "SN"], "industriesTotalInfluent": {}, "efluent": {}, "influent": {}, "cabal_observat": [], "compounds_effluent": {"q": 1103.036, "Trimetoprim": 0.06719356433943492}, "id_swat": "277", "lat": 41.8258583668618, "long": 2.78322489789588}, "ES9170390003010E": {"eu_code": "ES9170390003010E", "dc_code": "DCAM", "nom": "CAMPRODON", "population_real": 2516, "configuration": ["P", "SN"], "industriesTotalInfluent": {"q": 4.109589041095891}, "efluent": {}, "influent": {}, "cabal_observat": [], "compounds_effluent": {"q": 612.9815890410958, "Trimetoprim": 0.03709061164502376}, "id_swat": "10", "lat": 42.2995834047169, "long": 2.35891077896533}, "ES9170440001010E": {"eu_code": "ES9170440001010E", "dc_code": "DCDS", "nom": "CASS\u00c0 DE LA SELVA", "population_real": 17552, "configuration": ["P", "SP"], "industriesTotalInfluent": {"q": 88.9039726027397, "Trimetoprim": 0.0}, "efluent": {}, "influent": {}, "cabal_observat": [], "compounds_effluent": {"q": 4336.487972602739, "Trimetoprim": 0.5174995354478991}, "id_swat": "520", "lat": 41.8710615576265, "long": 2.83730450613792}, "ES9170460001010E": {"eu_code": "ES9170460001010E", "dc_code": "DCDR", "nom": "CASTELLFOLLIT DE LA ROCA", "population_real": 1048, "configuration": ["P", "SC"], "industriesTotalInfluent": {"q": 273.6986301369863}, "efluent": {}, "influent": {}, "cabal_observat": [], "compounds_effluent": {"q": 527.3146301369864, "Trimetoprim": 0.01544950755325314}, "id_swat": "50", "lat": 42.2220416154924, "long": 2.55055566690082}, "ES9170470001011E": {"eu_code": "ES9170470001011E", "dc_code": "DEPB", "nom": "EMPURIABRAVA", "population_real": 12220, "configuration": ["P", "SP"], "industriesTotalInfluent": {}, "efluent": {}, "influent": {}, "cabal_observat": [], "compounds_effluent": {"q": 2957.24, "Trimetoprim": 0.3602919509556362}, "id_swat": "34", "lat": 42.2457574383791, "long": 3.10382624758024}, "ES9170490001010E": {"eu_code": "ES9170490001010E", "dc_code": "DCLR", "nom": "CELR\u00c0", "population_real": 4638, "configuration": ["P", "SP"], "industriesTotalInfluent": {"q": 177.74246575342465}, "efluent": {}, "influent": {}, "cabal_observat": [], "compounds_effluent": {"q": 1300.1384657534245, "Trimetoprim": 0.1367458321221146}, "id_swat": "516", "lat": 42.0410863994172, "long": 2.86318276333314}, "ES9170660001010E": {"eu_code": "ES9170660001010E", "dc_code": "DFIG", "nom": "FIGUERES", "population_real": 48090, "configuration": ["P", "SP"], "industriesTotalInfluent": {"q": 19.712328767123285, "Trimetoprim": 0.00013934100456621006}, "efluent": {}, "influent": {}, "cabal_observat": [], "compounds_effluent": {"q": 11657.492328767123, "Trimetoprim": 1.417875610107323}, "id_swat": "427", "lat": 42.2752222980027, "long": 2.97799434856716}, "ES9170670003010E": {"eu_code": "ES9170670003010E", "dc_code": "DFLC", "nom": "FLA\u00c7\u00c0", "population_real": 1581, "configuration": ["P", "SC"], "industriesTotalInfluent": {"q": 17.47671232876712}, "efluent": {}, "influent": {}, "cabal_observat": [], "compounds_effluent": {"q": 400.0787123287671, "Trimetoprim": 0.023306938398562228}, "id_swat": "302", "lat": 42.0542345598246, "long": 2.95350854283878}, "ES9170790005010E": {"eu_code": "ES9170790005010E", "dc_code": "DGIR", "nom": "GIRONA", "population_real": 145373, "configuration": ["P", "SP"], "industriesTotalInfluent": {"q": 685.2602739726027}, "efluent": {}, "influent": {}, "cabal_observat": [], "compounds_effluent": {"q": 35865.5262739726, "Trimetoprim": 4.286147445685246}, "id_swat": "32", "lat": 42.0273146133428, "long": 2.83164559342454}, "ES9170830001010E": {"eu_code": "ES9170830001010E", "dc_code": "DHTR", "nom": "HOSTALRIC", "population_real": 3994, "configuration": ["P", "SN"], "industriesTotalInfluent": {"q": 7.945205479452055}, "efluent": {}, "influent": {}, "cabal_observat": [], "compounds_effluent": {"q": 974.4932054794521, "Trimetoprim": 0.05887913470199718}, "id_swat": "578", "lat": 41.7332596190329, "long": 2.624679461345}, "ES9170860002010E": {"eu_code": "ES9170860002010E", "dc_code": "DJON", "nom": "JONQUERA, LA", "population_real": 3106, "configuration": ["P", "SP"], "industriesTotalInfluent": {"q": 0.958904109589041}, "efluent": {}, "influent": {}, "cabal_observat": [], "compounds_effluent": {"q": 752.610904109589, "Trimetoprim": 0.0915766611839776}, "id_swat": "19", "lat": 42.4046040053179, "long": 2.87650907824979}, "ES9171030006010E": {"eu_code": "ES9171030006010E", "dc_code": "DMDS", "nom": "MA\u00c7ANET DE LA SELVA", "population_real": 6254, "configuration": ["P", "SC"], "industriesTotalInfluent": {"q": 0.0}, "efluent": {}, "influent": {}, "cabal_observat": [], "compounds_effluent": {"q": 1513.4679999999998, "Trimetoprim": 0.09219582083782933}, "id_swat": "158", "lat": 41.7891475556045, "long": 2.73704786000425}, "ES9171030007010E": {"eu_code": "ES9171030007010E", "dc_code": "DMDSB", "nom": "MA\u00c7ANET RESIDENCIAL", "population_real": 2907, "configuration": ["P", "SP"], "industriesTotalInfluent": {}, "efluent": {}, "influent": {}, "cabal_observat": [], "compounds_effluent": {"q": 703.494, "Trimetoprim": 0.08570938636890625}, "id_swat": "492", "lat": 41.7393486016622, "long": 2.6936049290822}, "ES9171140003010E": {"eu_code": "ES9171140003010E", "dc_code": "DOLO", "nom": "OLOT", "population_real": 36979, "configuration": ["P", "SP"], "industriesTotalInfluent": {"q": 35.98082191780822}, "efluent": {}, "influent": {}, "cabal_observat": [], "compounds_effluent": {"q": 8984.898821917808, "Trimetoprim": 1.090281182846847}, "id_swat": "81", "lat": 42.2028327358729, "long": 2.49090127728448}, "ES9171200001010E": {"eu_code": "ES9171200001010E", "dc_code": "DPSV", "nom": "PALAU-SAVERDERA", "population_real": 1475, "configuration": ["P", "SC"], "industriesTotalInfluent": {}, "efluent": {}, "influent": {}, "cabal_observat": [], "compounds_effluent": {"q": 356.95, "Trimetoprim": 0.02174429736741258}, "id_swat": "572", "lat": 42.2856311555632, "long": 3.11093510520573}, "ES9171240005010E": {"eu_code": "ES9171240005010E", "dc_code": "DPAL", "nom": "PALS", "population_real": 3454, "configuration": ["P", "SN", "CL"], "industriesTotalInfluent": {"q": 0.684931506849315}, "efluent": {}, "influent": {}, "cabal_observat": [], "compounds_effluent": {"q": 836.5529315068493, "Trimetoprim": 0.0}, "id_swat": "590", "lat": 41.9975414857556, "long": 3.15581830764092}, "ES9171320001010E": {"eu_code": "ES9171320001010E", "dc_code": "DPRL", "nom": "PERALADA", "population_real": 1826, "configuration": ["P", "SP"], "industriesTotalInfluent": {"q": 116.27945205479452, "Trimetoprim": 0.00041380224657534245}, "efluent": {}, "influent": {}, "cabal_observat": [], "compounds_effluent": {"q": 558.1714520547945, "Trimetoprim": 0.05383741436810645}, "id_swat": "456", "lat": 42.294836007838, "long": 3.01937358743737}, "ES9171330008010E": {"eu_code": "ES9171330008010E", "dc_code": "DLPH", "nom": "PLANES D'HOSTOLES, LES", "population_real": 3090, "configuration": ["P", "SC"], "industriesTotalInfluent": {}, "efluent": {}, "influent": {}, "cabal_observat": [], "compounds_effluent": {"q": 747.78, "Trimetoprim": 0.045552460247664316}, "id_swat": "533", "lat": 42.053365202938, "long": 2.55086961940361}, "ES9171450005010E": {"eu_code": "ES9171450005010E", "dc_code": "DRIF", "nom": "RIBES DE FRESER", "population_real": 2001, "configuration": ["P", "SC"], "industriesTotalInfluent": {}, "efluent": {}, "influent": {}, "cabal_observat": [], "compounds_effluent": {"q": 484.24199999999996, "Trimetoprim": 0.029498534937079712}, "id_swat": "349", "lat": 42.2996569981088, "long": 2.16693602429649}, "ES9171460006010E": {"eu_code": "ES9171460006010E", "dc_code": "DRIE", "nom": "RIELLS I VIABREA", "population_real": 3465, "configuration": ["P", "SC"], "industriesTotalInfluent": {}, "efluent": {}, "influent": {}, "cabal_observat": [], "compounds_effluent": {"q": 838.53, "Trimetoprim": 0.05108067144276922}, "id_swat": "196", "lat": 41.7265384356214, "long": 2.5723536465902}, "ES9171470007010E": {"eu_code": "ES9171470007010E", "dc_code": "DRIP", "nom": "RIPOLL", "population_real": 14386, "configuration": ["P", "SP"], "industriesTotalInfluent": {}, "efluent": {}, "influent": {}, "cabal_observat": [], "compounds_effluent": {"q": 3481.412, "Trimetoprim": 0.4241538466814879}, "id_swat": "51", "lat": 42.1665308611572, "long": 2.20119926243212}, "ES9171500001010E": {"eu_code": "ES9171500001010E", "dc_code": "DRDS", "nom": "RIUDELLOTS DE LA SELVA", "population_real": 2060, "configuration": ["P", "SN"], "industriesTotalInfluent": {"q": 0.7342465753424657}, "efluent": {}, "influent": {}, "cabal_observat": [], "compounds_effluent": {"q": 499.25424657534245, "Trimetoprim": 0.030368306831776208}, "id_swat": "311", "lat": 41.9082917748107, "long": 2.81270379198413}, "ES9171630006010E": {"eu_code": "ES9171630006010E", "dc_code": "DSGR", "nom": "SANT GREGORI", "population_real": 992, "configuration": ["P", "SC"], "industriesTotalInfluent": {}, "efluent": {}, "influent": {}, "cabal_observat": [], "compounds_effluent": {"q": 240.064, "Trimetoprim": 0.014623961348117475}, "id_swat": "118", "lat": 41.98403761814, "long": 2.76078270924926}, "ES9171640001010E": {"eu_code": "ES9171640001010E", "dc_code": "DSHS", "nom": "SANT HILARI SACALM", "population_real": 5729, "configuration": ["P", "SC"], "industriesTotalInfluent": {}, "efluent": {}, "influent": {}, "cabal_observat": [], "compounds_effluent": {"q": 1386.418, "Trimetoprim": 0.08445632516468247}, "id_swat": "333", "lat": 41.9014576693784, "long": 2.49680279632955}, "ES9171650003010E": {"eu_code": "ES9171650003010E", "dc_code": "DSJL", "nom": "SANT JAUME DE LLIERCA", "population_real": 2104, "configuration": ["P", "SN"], "industriesTotalInfluent": {"q": 5.057534246575343}, "efluent": {}, "influent": {}, "cabal_observat": [], "compounds_effluent": {"q": 514.2255342465753, "Trimetoprim": 0.03101695027866852}, "id_swat": "424", "lat": 42.2105394711837, "long": 2.62450518530912}, "ES9171670007010E": {"eu_code": "ES9171670007010E", "dc_code": "DSJA", "nom": "SANT JOAN DE LES ABADESSES", "population_real": 3586, "configuration": ["P", "SC"], "industriesTotalInfluent": {"q": 35.0}, "efluent": {}, "influent": {}, "cabal_observat": [], "compounds_effluent": {"q": 902.812, "Trimetoprim": 0.052864440921723065}, "id_swat": "63", "lat": 42.2284995997459, "long": 2.27870497598148}, "ES9171800004010E": {"eu_code": "ES9171800004010E", "dc_code": "DSCF", "nom": "SANTA COLOMA DE FARNERS", "population_real": 11739, "configuration": ["P", "SP"], "industriesTotalInfluent": {"q": 25.958904109589042, "Trimetoprim": 0.0}, "efluent": {}, "influent": {}, "cabal_observat": [], "compounds_effluent": {"q": 2866.796904109589, "Trimetoprim": 0.3461102465031271}, "id_swat": "496", "lat": 41.8523915998188, "long": 2.66858121211366}, "ES9171850001010E": {"eu_code": "ES9171850001010E", "dc_code": "DSJFB", "nom": "BEGUD\u00c0", "population_real": 234, "configuration": ["P", "SN"], "industriesTotalInfluent": {}, "efluent": {}, "influent": {}, "cabal_observat": [], "compounds_effluent": {"q": 56.628, "Trimetoprim": 0.003449603785745453}, "id_swat": "559", "lat": 42.218786535824, "long": 2.55409672899081}, "ES9171850006010E": {"eu_code": "ES9171850006010E", "dc_code": "DSJF", "nom": "SANT JOAN LES FONTS", "population_real": 4151, "configuration": ["P", "SN"], "industriesTotalInfluent": {"q": 80.53986301369864}, "efluent": {}, "influent": {}, "cabal_observat": [], "compounds_effluent": {"q": 1085.0818630136985, "Trimetoprim": 0.0611936124556811}, "id_swat": "425", "lat": 42.216055005915, "long": 2.52509387998133}, "ES9171930002010E": {"eu_code": "ES9171930002010E", "dc_code": "DSIV", "nom": "SILS-VIDRERES", "population_real": 12557, "configuration": ["P", "SP"], "industriesTotalInfluent": {"q": 0.0684931506849315}, "efluent": {}, "influent": {}, "cabal_observat": [], "compounds_effluent": {"q": 3038.8624931506847, "Trimetoprim": 0.3702279892103047}, "id_swat": "276", "lat": 41.8048647634052, "long": 2.74834316846645}, "ES9171990004020E": {"eu_code": "ES9171990004020E", "dc_code": "DTMN", "nom": "TORROELLA DE MONTGR\u00cd", "population_real": 12238, "configuration": ["P", "SP", "UV", "CL"], "industriesTotalInfluent": {"q": 3.83013698630137}, "efluent": {}, "influent": {}, "cabal_observat": [], "compounds_effluent": {"q": 2965.4261369863016, "Trimetoprim": 0.0}, "id_swat": "432", "lat": 42.0253681554176, "long": 3.15783011959326}, "ES9172130009010E": {"eu_code": "ES9172130009010E", "dc_code": "DVIDT", "nom": "TERRAFORTUNA", "population_real": 1827, "configuration": ["P", "SN"], "industriesTotalInfluent": {}, "efluent": {}, "influent": {}, "cabal_observat": [], "compounds_effluent": {"q": 442.134, "Trimetoprim": 0.026933444942551038}, "id_swat": "598", "lat": 41.7859407932749, "long": 2.76588829819534}, "ES9172330003010E": {"eu_code": "ES9172330003010E", "dc_code": "DVDO", "nom": "VILOB\u00cd D'ONYAR", "population_real": 2956, "configuration": ["P", "SC"], "industriesTotalInfluent": {}, "efluent": {}, "influent": {}, "cabal_observat": [], "compounds_effluent": {"q": 715.352, "Trimetoprim": 0.04357704611394683}, "id_swat": "319", "lat": 41.8859382495882, "long": 2.74802526082255}, "ES9179020202010E": {"eu_code": "ES9179020202010E", "dc_code": "DFRLP", "nom": "PERATALLADA", "population_real": 132, "configuration": ["P", "SP"], "industriesTotalInfluent": {}, "efluent": {}, "influent": {}, "cabal_observat": [], "compounds_effluent": {"q": 31.944, "Trimetoprim": 0.0038918606813538445}, "id_swat": "294", "lat": 41.9848994551874, "long": 3.09726745086458}, "ES9251930001010E": {"eu_code": "ES9251930001010E", "dc_code": "DSLO", "nom": "SANT LLOREN\u00c7 DE MORUNYS", "population_real": 1004, "configuration": ["P", "SP"], "industriesTotalInfluent": {"q": 20.54794520547945}, "efluent": {}, "influent": {}, "cabal_observat": [], "compounds_effluent": {"q": 263.51594520547945, "Trimetoprim": 0.02960172821272166}, "id_swat": "622", "lat": 42.1405001292932, "long": 1.5998251225095}, "ES9252070001020E": {"eu_code": "ES9252070001020E", "dc_code": "DSOL", "nom": "SOLSONA", "population_real": 10600, "configuration": ["P", "SP"], "industriesTotalInfluent": {"q": 2.328767123287671}, "efluent": {}, "influent": {}, "cabal_observat": [], "compounds_effluent": {"q": 2567.5287671232877, "Trimetoprim": 0.31252820622992994}, "id_swat": "1121", "lat": 41.9846430460589, "long": 1.52701317826661}, "ES9430050001010E": {"eu_code": "ES9430050001010E", "dc_code": "DALB", "nom": "ALCOVER", "population_real": 4611, "configuration": ["P", "SC"], "industriesTotalInfluent": {"q": 6.8493150684931505}, "efluent": {}, "influent": {}, "cabal_observat": [], "compounds_effluent": {"q": 1122.7113150684931, "Trimetoprim": 0.06797488485500976}, "id_swat": "1042", "lat": 41.2564196708251, "long": 1.17180271848033}, "ES9430090001010E": {"eu_code": "ES9430090001010E", "dc_code": "DALJ", "nom": "ALFORJA", "population_real": 1790, "configuration": ["P", "SC"], "industriesTotalInfluent": {}, "efluent": {}, "influent": {}, "cabal_observat": [], "compounds_effluent": {"q": 433.18, "Trimetoprim": 0.026387994771300695}, "id_swat": "835", "lat": 41.2030685565416, "long": 0.99149280748048}, "ES9430240002010E": {"eu_code": "ES9430240002010E", "dc_code": "DBLV", "nom": "BELLVEI", "population_real": 1381, "configuration": ["P", "SC"], "industriesTotalInfluent": {"q": 0.09863013698630137}, "efluent": {}, "influent": {}, "cabal_observat": [], "compounds_effluent": {"q": 334.3006301369863, "Trimetoprim": 0.020358559094506283}, "id_swat": "883", "lat": 41.2417616555913, "long": 1.56807574063081}, "ES9430540002010E": {"eu_code": "ES9430540002010E", "dc_code": "DESP", "nom": "ESPLUGA DE FRANCOL\u00cd, L'", "population_real": 4987, "configuration": ["P", "SP"], "industriesTotalInfluent": {}, "efluent": {}, "influent": {}, "cabal_observat": [], "compounds_effluent": {"q": 1206.854, "Trimetoprim": 0.14703567589326985}, "id_swat": "1051", "lat": 41.3935060049056, "long": 1.11760878036655}, "ES9430740001020E": {"eu_code": "ES9430740001020E", "dc_code": "DLDP", "nom": "LLOREN\u00c7 DEL PENED\u00c8S", "population_real": 2185, "configuration": ["P", "SC"], "industriesTotalInfluent": {"q": 0.048657534246575346}, "efluent": {}, "influent": {}, "cabal_observat": [], "compounds_effluent": {"q": 528.8186575342465, "Trimetoprim": 0.032211043896811176}, "id_swat": "820", "lat": 41.2737491355178, "long": 1.56391018586794}, "ES9430860003010E": {"eu_code": "ES9430860003010E", "dc_code": "DMOB", "nom": "MONTBLANC", "population_real": 7042, "configuration": ["P", "SN"], "industriesTotalInfluent": {"q": 0.273972602739726}, "efluent": {}, "influent": {}, "cabal_observat": [], "compounds_effluent": {"q": 1704.4379726027398, "Trimetoprim": 0.10381243529580975}, "id_swat": "992", "lat": 41.3709426731182, "long": 1.17814631876483}, "ES9430880001010E": {"eu_code": "ES9430880001010E", "dc_code": "DMTB", "nom": "MONTBRI\u00d3 DEL CAMP", "population_real": 1829, "configuration": ["P", "SC"], "industriesTotalInfluent": {}, "efluent": {}, "influent": {}, "cabal_observat": [], "compounds_effluent": {"q": 442.618, "Trimetoprim": 0.026962928735591595}, "id_swat": "838", "lat": 41.1124568849017, "long": 1.00722551660459}, "ES9430920002010E": {"eu_code": "ES9430920002010E", "dc_code": "DMRCP", "nom": "MONT-ROIG DEL CAMP (POBLE)", "population_real": 3099, "configuration": ["P", "SC"], "industriesTotalInfluent": {"q": 0.273972602739726}, "efluent": {}, "influent": {}, "cabal_observat": [], "compounds_effluent": {"q": 750.2319726027397, "Trimetoprim": 0.04568513731634684}, "id_swat": "1010", "lat": 41.0718193365357, "long": 1.00154186717654}, "ES9431040002020E": {"eu_code": "ES9431040002020E", "dc_code": "DPER", "nom": "PERELL\u00d3, EL", "population_real": 2824, "configuration": ["P", "SC", "UF", "SF"], "industriesTotalInfluent": {}, "efluent": {}, "influent": {}, "cabal_observat": [], "compounds_effluent": {"q": 683.408, "Trimetoprim": 0.0}, "id_swat": "848", "lat": 40.8895018062974, "long": 0.72530504521618}, "ES9431080001010E": {"eu_code": "ES9431080001010E", "dc_code": "DPDM", "nom": "PLA DE SANTA MARIA, EL", "population_real": 2371, "configuration": ["P", "SN"], "industriesTotalInfluent": {}, "efluent": {}, "influent": {}, "cabal_observat": [], "compounds_effluent": {"q": 573.782, "Trimetoprim": 0.034953036649583206}, "id_swat": "867", "lat": 41.3398649551673, "long": 1.28311485970848}, "ES9431090001010E": {"eu_code": "ES9431090001010E", "dc_code": "DLPM", "nom": "POBLA DE MAFUMET, LA", "population_real": 8023, "configuration": ["P", "SP"], "industriesTotalInfluent": {}, "efluent": {}, "influent": {}, "cabal_observat": [], "compounds_effluent": {"q": 1941.566, "Trimetoprim": 0.2365484715644083}, "id_swat": "861", "lat": 41.1815375174787, "long": 1.23360133112856}, "ES9431230006010E": {"eu_code": "ES9431230006010E", "dc_code": "DRUS", "nom": "REUS", "population_real": 110574, "configuration": ["P", "SC"], "industriesTotalInfluent": {"q": 3730.315068493151, "Trimetoprim": 0.00015632876712328765}, "efluent": {}, "influent": {}, "cabal_observat": [], "compounds_effluent": {"q": 30489.22306849315, "Trimetoprim": 1.6300704673966968}, "id_swat": "855", "lat": 41.1293351408354, "long": 1.11653449538815}, "ES9431290001010E": {"eu_code": "ES9431290001010E", "dc_code": "DRIU", "nom": "RIUDOMS", "population_real": 6473, "configuration": ["P", "SC"], "industriesTotalInfluent": {"q": 0.821917808219178}, "efluent": {}, "influent": {}, "cabal_observat": [], "compounds_effluent": {"q": 1567.2879178082192, "Trimetoprim": 0.0954242961757706}, "id_swat": "821", "lat": 41.1238715415446, "long": 1.06308229820626}, "ES9431370002010E": {"eu_code": "ES9431370002010E", "dc_code": "DSJDC", "nom": "SANT JAUME DELS DOMENYS (CORNUDELLA)", "population_real": 1622, "configuration": ["P", "SC"], "industriesTotalInfluent": {}, "efluent": {}, "influent": {}, "cabal_observat": [], "compounds_effluent": {"q": 392.524, "Trimetoprim": 0.023911356155893692}, "id_swat": "1059", "lat": 41.2940996373765, "long": 1.57039927952998}, "ES9431390004010E": {"eu_code": "ES9431390004010E", "dc_code": "DSCQ", "nom": "SANTA COLOMA DE QUERALT", "population_real": 3096, "configuration": ["P", "SC"], "industriesTotalInfluent": {"q": 0.0}, "efluent": {}, "influent": {}, "cabal_observat": [], "compounds_effluent": {"q": 749.232, "Trimetoprim": 0.045640911626785984}, "id_swat": "1022", "lat": 41.5200258186556, "long": 1.39841013423921}, "ES9431400003010E": {"eu_code": "ES9431400003010E", "dc_code": "DVEN", "nom": "RIERA DE LA BISBAL (EL VENDRELL)", "population_real": 43648, "configuration": ["P", "SP", "UF", "UV", "CL", "OTHER"], "industriesTotalInfluent": {"q": 0.3698630136986301}, "efluent": {}, "influent": {}, "cabal_observat": [], "compounds_effluent": {"q": 10563.185863013698, "Trimetoprim": 0.0}, "id_swat": "815", "lat": 41.2545749074504, "long": 1.54700222187858}, "ES9431450003010E": {"eu_code": "ES9431450003010E", "dc_code": "DSDC", "nom": "SELVA DEL CAMP, LA", "population_real": 4264, "configuration": ["P", "SP", "CL"], "industriesTotalInfluent": {"q": 35.72876712328767, "Trimetoprim": 0.15645204397808216}, "efluent": {}, "influent": {}, "cabal_observat": [], "compounds_effluent": {"q": 1067.6167671232877, "Trimetoprim": 0.0}, "id_swat": "828", "lat": 41.218125951208, "long": 1.14862460681333}, "ES9431470001010E": {"eu_code": "ES9431470001010E", "dc_code": "DSLV", "nom": "SOLIVELLA", "population_real": 686, "configuration": ["P", "SN"], "industriesTotalInfluent": {}, "efluent": {}, "influent": {}, "cabal_observat": [], "compounds_effluent": {"q": 166.012, "Trimetoprim": 0.010112941012911882}, "id_swat": "873", "lat": 41.420164220128, "long": 1.18979965603617}, "ES9431610004010E": {"eu_code": "ES9431610004010E", "dc_code": "DVAL", "nom": "VALLS POBLE", "population_real": 24511, "configuration": ["P", "SP"], "industriesTotalInfluent": {"q": 379.33698630136985, "Trimetoprim": 0.0027062906630136987}, "efluent": {}, "influent": {}, "cabal_observat": [], "compounds_effluent": {"q": 6310.99898630137, "Trimetoprim": 0.7226773053429655}, "id_swat": "768", "lat": 41.2705179173064, "long": 1.23727053620994}}