uwwCode,pe,dcpCode,dcpName,dcpLatitude,dcpLongitude,pop_2015_g,country_id
PLLE0750,3406.983,PLLE0750Z,dcp Piszczac,51.985,23.3601,7694.71696993709,PL
PLLE0760,1204,PLLE0760Z,dcp Wólka,51.6995,22.3568,3616.24397226423,PL
PLLE0770,1749.766,PLLE0770Z,dcp Wąwolnica,51.2954,22.1467,4617.74005824607,PL
PLLE0780,4841,PLLE0780Z,dcp Płudy,52.0216,22.54333,352.436946585774,PL
PLLE0710,1073.874,PLLE0710Z,dcp TARŁO,51.5116,22.6897,986.839682817459,PL
PLLE0720,1934.868,PLLE0720Z,dcp Garbów,51.3522,22.3253,4026.03828278743,PL
PLLE0730,2249.625,PLLE0730Z,dcp Oczyszczalnia Lubycza Królewska,50.3425,23.5325,2443.96196908876,PL
PLLE0740,1724.041,PLLE0740Z,dcp Sawin,51.2791,23.4349,1338.51839961857,PL
PLLE0670,13107.072,PLLE0670Z,dcp Michów,51.5298,22.3106,1468.32890585065,PL
PLLE0680,1002.24,PLLE0680Z,dcp Tyszowce,50.6267,23.723,14684.4943546737,PL
PLLE0690,3616.822,PLLE0690Z,dcp Puchaczów,51.3072,22.9644,7352.68400843348,PL
PLLE0700,2529.086,PLLE0700Z,dcp Rejowiec,51.0897,23.2706,3685.21837871242,PL
PLLE0630,2369.29,PLLE0630Z,dcp Piaski,51.1398,22.8588,14251.0167609993,PL
PLLE0640,2071.707,PLLE0640Z,dcp Frampol,50.6595,22.6566,1594.78345439676,PL
PLLE0650,3459.92,PLLE0650Z,dcp Trawniki,51.1477,22.9994,32705.8098166885,PL
PLLE0660,1626.1,PLLE0660Z,dcp Łaszczów,50.5469,23.739,11811.6021138933,PL
PLLE0580,1315.413,PLLE0580Z,dcp Izbica,50.8988,23.1429,91328.1050039474,PL
PLLE0590,2780.726,PLLE0590Z,dcp Janów Podlaski,52.2044,23.2136,5578.17551727407,PL
PLLE0600,1244.747,PLLE0600Z,dcp oczyszczalnia ścieków w Kurowie,51.3841,22.1674,10486.9955217894,PL
PLLE0610,2373.033,PLLE0610Z,dcp Annopol,50.88,21.8371,129139.262716433,PL
PLLE0540,2019.71,PLLE0540Z,dcp Oczyszczalnie ścieków Bełżec,50.387,23.4562,3662.37376581132,PL
PLLE0550,1715.553,PLLE0550Z,dcp Ostrów Lubelski,51.5096,22.85,11948.6302876323,PL
PLLE0560,2140.124,PLLE0560Z,dcp Adamów,51.7333,22.2755,4264.59742854768,PL
PLLE0570,4768.98,PLLE0570Z,dcp Hutki,50.5538,23.1793,8514.34091964224,PL
PLLE0470,2970.06,PLLE0470Z,dcp Tarnogród,50.22,22.44,5912.29461158812,PL
PLLE0480,2478.736,PLLE0480Z,dcp Wisznice,51.7992,23.1914,15444.6570073315,PL
PLLE0490,3247.074,PLLE0490Z,dcp Kazimierz Dolny,51.3407,21.9758,150226.240446825,PL
PLLE0520,3553.344,PLLE0520Z,dcp Kock,51.6366,22.433,63472.5538629005,PL
PLLE0440,2126.46,PLLE0440Z,dcp Strzyżów,50.8394,24.0355,34403.0178954939,PL
PLLE0450,705.17,PLLE0450Z,dcp Niedrzwica,51.1248,22.397,8171.23768129037,PL
PLLE0460,934.912,PLLE0460Z,dcp Oczyszczalnia Ścieków Gościeradów Folwark,50.5152,21.5021,36845.8674068572,PL
PLLE0461,163.328,PLLE0461Z,dcp Oczyszczalnia Ścieków Wólka Gościeradowska,50.5222,22.0146,52.4175355434418,PL
PLLE0370,6511.802,PLLE0370Z,dcp NAŁĘCZÓW,51.2873,22.1931,13044.8348920085,PL
PLLE0400,4450.05,PLLE0400Z,dcp Niemce,51.3638,22.627,4127.46463247761,PL
PLLE0410,2904.038,PLLE0410Z,dcp Werbkowice,50.7623,23.7674,24936.542355781,PL
PLLE0430,3838.38,PLLE0430Z,dcp Stoczek Łukowski,51.9615,21.9754,3006.32161766291,PL
PLLE0310,5771.502,PLLE0310Z,dcp Zwierzyniec,50.6167,22.9561,9670.71615841612,PL
PLLE0320,13394.475,PLLE0320Z,dcp Mechaniczno-Biologiczna Oczyszczalnia Ścieków w Milejowie,51.2258,22.9357,16426.3663632674,PL
PLLE0330,2598.458,PLLE0330Z,dcp Szczebrzeszyn,50.7067,23.0081,8337.90710686054,PL
PLLE0340,3630.06,PLLE0340Z,dcp Rejowiec Fabryczny,51.1091,23.25,66.7384449243546,PL
PLLE0250,4054.056,PLLE0250Z,dcp Snopków,51.1833,22.2935,6811.28594126552,PL
PLLE0260,5191.789,PLLE0260Z,"dcp Terespol ""Wschód""",52.0858,23.6378,18120.8285220601,PL
PLLE0290,5113.773,PLLE0290Z,dcp Koroszczyn,52.0713,23.5599,9856.99869837658,PL
PLLE0300,7410.44,PLLE0300Z,dcp BEŁŻYCE,51.1801,22.2994,8.8385534286499,PL
PLLE0200,23622.66,PLLE0200Z,dcp Radzyń Podlaski,51.7719,22.5929,26142.291546193,PL
PLLE0210,13336.617,PLLE0210Z,dcp Miejska oczyszczalnia ścieków,51.1834,22.0535,10282.2847359926,PL
PLLE0230,15124,PLLE0230Z,dcp Parczew,51.6355,22.8671,17040.0883734184,PL
PLLE0240,5950.575,PLLE0240Z,dcp BYCHAWA,51.0316,22.5233,12371.6765183695,PL
PLLE0160,17903.052,PLLE0160Z,dcp Miejska Oczyszczalnia Ścieków Komunalnych.,51.0008,23.1759,51424.9820043177,PL
PLLE0170,21201.6,PLLE0170Z,dcp Hrubieszów,50.8063,23.9283,30612.9452048447,PL
PLLE0180,12934.045,PLLE0180Z,dcp Zakład Gospodarki Komunalnej,50.7009,22.3836,17718.6202162281,PL
PLLE0190,15283,PLLE0190Z,dcp Włodawa,51.5602,23.5695,23620.0297096036,PL
PLLE0120,19632.649,PLLE0120Z,dcp Dział Utylizacji Odpadów,51.3247,22.9286,2162.66187179834,PL
PLLE0130,16315.007,PLLE0130Z,dcp Dęblin,51.5696,21.8123,557.934405893087,PL
PLLE0140,66222.576,PLLE0140Z,dcp Tomaszów Lubelski,50.4441,23.4322,20386.2051514965,PL
PLLE0150,14684.355,PLLE0150Z,dcp Opole Lubelskie,51.1543,21.9509,7752.71968506882,PL
PLLE0080,25394.88,PLLE0080Z,dcp OŚ Lubartów,51.4709,22.6221,131445.277926765,PL
PLLE0090,37194.64,PLLE0090Z,dcp Kraśnik,50.9505,22.1813,38934.8093334436,PL
PLLE0100,40750.392,PLLE0100Z,dcp Biłgoraj,50.5208,22.7075,19933.7823061477,PL
PLLE0110,18747.547,PLLE0110Z,dcp Międzyrzec Podlaski,51.9886,22.8043,60183.3565575457,PL
PLLE0040,92284.455,PLLE0040Z,dcp Zakład Oczyszczania Ścieków,52.0295,23.1707,68985.3226732726,PL
PLLE0050,13491.554,PLLE0050Z,dcp Oczyszczalnia ścieków FREGATA w Rykach,51.6042,21.8866,664.767261318862,PL
PLLE0060,77199.335,PLLE0060Z,dcp Oczyszczalnia Ścieków w Puławach,51.4515,21.9484,74176.6400492191,PL
PLLE0070,90159.435,PLLE0070Z,dcp Zakład kanalizacji i oczyszczania ścieków,51.9286,22.3948,28252.7567703258,PL
PLL00870N,3585.113,PLL00870NZ,dcp Gomunice,51.1667,19.4763,8500.69312099507,PL
PLLE0010,523619.364,PLLE0010Z,dcp Lublin - Hajdów,51.2684,22.6255,406599.12949879,PL
PLLE0020,103663.08,PLLE0020Z,dcp Zamość,50.7377,23.2425,62298.7802921461,PL
PLLE0030,106264.15,PLLE0030Z,dcp Bieławin,51.1518,23.4713,70660.8655198007,PL
PLKP5032,1173.462,PLKP5032Z,dcp Oczyszczalnia scieków komunalnych w Drzycimiu,53.5112,18.3239,3144.47391098738,PL
PLKP5033,410.94,PLKP5033Z,dcp Oczyszczalnia ścieków socjalno-bytowych Zakład Gródek,53.498,18.3701,313.054818630219,PL
PLKP5034,479.43,PLKP5034Z,"dcp Oczyszczalnia scieków socjalno - bytowych Spółdzielnia Mieszkaniowa ""ENERGETYK"" Gródek",53.5087,18.3716,23620.5541963521,PL
PLL00480,2120.927,PLL00480Z,dcp Przytoczna,52.5809,15.677,7689.36526099034,PL
PLKP1010N,2920.4,PLKP1010NZ,dcp Dobre,52.6933,18.5693,1446.20036290213,PL
PLKP1020N,2675.573,PLKP1020NZ,dcp Izbica Kujawska,52.4172,18.7496,3853.55657839775,PL
PLKP501,2580.656,PLKP501Z,dcp Kikół,52.9262,19.1109,5951.55028248765,PL
PLKP5020,3638.214,PLKP5020Z,dcp Brzoza,53.0171,18.0247,15372.3300097138,PL
PLKP0930N,1825.683,PLKP0930NZ,dcp Kucerz,52.7766,18.9337,12124.5023168391,PL
PLKP0980N,4477.035,PLKP0980NZ,dcp POTULICE,53.1192,17.6697,24503.6738120308,PL
PLKP0990N,4058.1,PLKP0990NZ,dcp ZBW BOS BG-500 Piotrków Kujawski,52.5618,18.498,5153.95585715026,PL
PLKP1000N,2687.133,PLKP1000NZ,dcp Czernikowo,52.9324,18.9531,1712.50123736449,PL
PLKP0890N,1161.206,PLKP0890NZ,dcp RADOMIN,53.0905,19.1922,1231.80195877329,PL
PLKP0900N,1363.4,PLKP0900NZ,dcp KUJAWKA,52.6877,18.7558,1940.30233630911,PL
PLKP0920N,2813.706,PLKP0920NZ,dcp LNIANO,53.5362,18.2136,2075.67509531975,PL
PLKP0930,6615,PLKP0930Z,"dcp Kańczuga ""AXTONE""",49.5915,22.2512,308.869885206223,PL
PLKP0830,3097.206,PLKP0830Z,dcp MIELNO-LUBIENIEC,52.413,19.0119,5235.202813223,PL
PLKP0850,1824.51,PLKP0850Z,dcp Dąbrowa Biskupia,52.786,18.5315,1901.1556081078,PL
PLKP0870N,3685.426,PLKP0870NZ,dcp Zegartowice,53.2314,18.5052,22310.1257260703,PL
PLKP0880N,1577.22,PLKP0880NZ,dcp Gębice,52.6032,18.0383,8665.37788469484,PL
PLKP0780,2899.134,PLKP0780Z,dcp Świecie nad Osą,53.4411,19.1032,28943.013137836,PL
PLKP0801,1799.152,PLKP0801Z,dcp Fabianki,52.713,19.1211,12032.8886718452,PL
PLKP0802,1202.694,PLKP0802Z,dcp Szpetal Górny,52.6908,19.1147,3124.06159419566,PL
PLKP0810,3420.2,PLKP0810Z,dcp BYSŁAW,53.5,17.9929,2517.28265679255,PL
PLKP0720,3420.146,PLKP0720Z,dcp KOWAL,52.5357,19.1598,15586.1713699717,PL
PLKP0730,2487.24,PLKP0730Z,dcp Wąwelno,53.3183,17.6742,260.66455809772,PL
PLKP0740,1990.656,PLKP0740Z,dcp Wójtówka,52.8052,18.8868,355.432975664735,PL
PLKP0770,2879.118,PLKP0770Z,dcp Przeczno,53.1405,18.4683,3067.15063918382,PL
PLKP0672,363.171,PLKP0672Z,dcp Brzezie,52.6861,18.9042,2865.10469595762,PL
PLKP0680,4171.1,PLKP0680Z,dcp Dolna Grupa,53.4896,18.6891,3410.33069970459,PL
PLKP0700,3493.792,PLKP0700Z,dcp Lubraniec Marysin,52.5397,18.8429,29741.9190697707,PL
PLKP0710,3901.968,PLKP0710Z,dcp ROGOWO,52.7312,17.6397,41441.7129170643,PL
PLKP0640,2871.385,PLKP0640Z,dcp Dziemionna,52.9713,18.077,3272.87217612378,PL
PLKP0650,7726.267,PLKP0650Z,dcp Zławieś Wielka,53.0929,18.3016,14907.3602678543,PL
PLKP0660,4543.426,PLKP0660Z,dcp Skępe,52.857,19.3487,2858.42073431611,PL
PLKP0671,6330.569,PLKP0671Z,dcp Stary Brześć,52.6239,18.8986,26556.3267341801,PL
PLKP0560,7964.145,PLKP0560Z,dcp Lubicz Górny,53.0236,18.7558,68337.5688836109,PL
PLKP0570,5202.2,PLKP0570Z,dcp Kowalewo Pomorskie,53.1491,18.9055,9038.86925317999,PL
PLKP0590,6218.19,PLKP0590Z,dcp UNISŁAW,53.2086,18.3586,246.238664627075,PL
PLKP0610,1999.352,PLKP0610Z,dcp Wojnowo,53.2013,17.8404,751.023590564728,PL
PLKP0520,4952.091,PLKP0520Z,dcp Mała Nieszawka,52.9978,18.511,14433.019957304,PL
PLKP0530,8616.34,PLKP0530Z,dcp Dobrzejewice,53.0015,18.8305,3499.94506115466,PL
PLKP0540,4775.98,PLKP0540Z,dcp Śliwice,53.7068,18.1869,4811.69143375754,PL
PLKP0550,2272.284,PLKP0550Z,dcp Oczyszczalnia ścieków w Dobrzyniu nad Wisłą,52.3853,19.1867,76.4990084171295,PL
PLKP0470,8322.068,PLKP0470Z,dcp Mrocza,53.2384,17.6148,11424.0587184113,PL
PLKP0480,4814.59,PLKP0480Z,dcp Jeżewo,53.5098,18.5065,1189.41944770515,PL
PLKP0490,9736.512,PLKP0490Z,dcp Jabłonowo Pomorskie,53.3946,19.1395,23280.0127479089,PL
PLKP0500,6538.854,PLKP0500Z,dcp Oczyszczalnia ścieków miasta Radziejów,52.6318,18.5122,6396.34787410498,PL
PLKP0410,5816.79,PLKP0410Z,dcp Flantrowo,52.7582,17.468,368.050479590893,PL
PLKP0430,7542.99,PLKP0430Z,dcp Osie,53.6033,18.3235,5495.94116839767,PL
PLKP0440,2651,PLKP0440Z,dcp Świekatowo,53.4091,18.0782,1676.40023619682,PL
PLKP0460,4348.566,PLKP0460Z,dcp Kamień Krajeński,53.5285,17.5475,14625.7705607798,PL
PLKP0360,11520.18,PLKP0360Z,dcp Soda Polska CIECH S.A. Zakład Produkcyjny JANIKOSODA w Janikowie.,53.004,18.2804,18.5766143798828,PL
PLKP0380,4282.115,PLKP0380Z,dcp Łasin,53.5111,19.0898,2304.63699707389,PL
PLKP0390,6102.18,PLKP0390Z,dcp Złotniki Kujawskie,52.888,18.1547,748.890654981136,PL
PLKP0400,3104.676,PLKP0400Z,dcp PRUSZCZ,53.3205,18.2041,1055.72459506989,PL
PLKP0310,8178,PLKP0310Z,dcp Tryl,53.6365,18.7292,86670.7152308999,PL
PLKP0320,2897.454,PLKP0320Z,dcp Osięciny,52.6241,18.7319,458.670246064663,PL
PLKP0330,4731.031,PLKP0330Z,dcp Kcynia,52.9811,17.4836,2461.96987501439,PL
PLKP0350,11037,PLKP0350Z,dcp SZUBIN,53.0141,17.775,25374.407301384,PL
PLLU0271,7426.622,PLLU0271Z,dcp Rzepin,52.3346,14.8323,2766.88162225485,PL
PLLU0272,0,PLLU0272Z,"dcp Kowalów, Drzeńsko",52.3833,14.7677,0,PL
PLLU0280,5340.216,PLLU0280Z,dcp NOWOGRÓD BOBRZAŃSKI,51.8095,15.2413,62667.4178496525,PL
PLLU0290,1265.904,PLLU0290Z,dcp Stare Kurowo,52.5051,15.3955,363.098197165877,PL
PLLU0231,20080.367,PLLU0231Z,dcp Sława,51.8727,16.1621,1523.47142523527,PL
PLLU0240,3127.278,PLLU0240Z,dcp Nowe Miasteczko,51.7055,15.7194,5474.91944850981,PL
PLLU0250,3747.123,PLLU0250Z,dcp Iłowa,51.311,15.1258,0,PL
PLLU0260,9131.76,PLLU0260Z,dcp Zbąszynek,52.25,15.8237,5673.83950040117,PL
PLLU0190,12454.538,PLLU0190Z,dcp Drezdenko,52.845,15.821,12690.2721824758,PL
PLLU0200,12207.151,PLLU0200Z,dcp OŚ W SULĘCINIE,52.4694,15.1042,13797.6530918106,PL
PLLU0210,8192.926,PLLU0210Z,dcp Podbrzezie Dolne,51.7573,15.601,11795.5455069914,PL
PLLU0220,11015.55,PLLU0220Z,dcp Miejska Oczyszczalnia ścieków w Skwierzynie,52.5978,15.4913,16704.0633712616,PL
PLLU0150,24445.096,PLLU0150Z,dcp Obra,52.4515,15.5603,1401.13187754154,PL
PLLU0160,23947.01,PLLU0160Z,dcp MOS SŁUBICE,52.3702,14.5858,4539.52904075384,PL
PLLU0170,17665.403,PLLU0170 Z,dcp Lubsko,51.793,14.9444,14015.2232591454,PL
PLLU0180,15693.582,PLLU0180Z,dcp Białczyk,52.648047,14.943121,194561.696784106,PL
PLLU0110,13700.596,PLLU0110Z,dcp MIEJSKA OCZYSZCZALNIA ŚCIEKÓW,52.5212,15.3259,0,PL
PLLU0120,21855.676,PLLU0120Z,dcp Nowy Świat,52.0616,15.5953,18211.5126124891,PL
PLLU0130,16503.116,PLLU0130Z,dcp Wschowa,51.7573,16.312,1263.94885605574,PL
PLLU0140,16880.32,PLLU0140Z,dcp Kostrzyn  ul. Asfaltowa,52.5992,14.61,46595.9074921941,PL
PLLU0070,37244.186,PLLU0070Z,dcp Świebodzin,52.2542,15.5582,19725.6759981699,PL
PLLU0080,6418.86,PLLU0080Z,dcp LEMNA,52.0754,15.8847,54036.3474777557,PL
PLLU0090,16508.64,PLLU0090Z,"dcp Oczyszczalnia Ścieków, ul. Akacjowa w Wiechlicach",51.555,15.5741,9214.95470076241,PL
PLLU0100,15026.748,PLLU0100Z,dcp KROSNO ODRZAŃSKIE,52.0327,15.0704,9003.38210861385,PL
PLLU0030,15756.136,PLLU0030Z,dcp Przedsiębiorstwo Oczyszczania Ścieków Gubin - Guben Sp. z o.o.,51.9729,14.7072,40698.2840921814,PL
PLLU0040,41071.415,PLLU0040Z,"dcp Spółka Wodno-Ściekowa ""Złota Struga""",51.6448,15.171,33223.9375361353,PL
PLLU0050,41416.063,PLLU0050Z,dcp Żagańskie Wodociągi i Kanalizacje Sp. z o.o. w Żaganiu,51.3856,15.1748,8110.81303799897,PL
PLLU0060,46795.38,PLLU0060Z,dcp Nowa Sól,51.8251,15.73,34156.7519958615,PL
PLLO5020,1540.955,PLLO5020Z,dcp Żarnów,51.254,20.1743,2177.19965052605,PL
PLLO890N,3080.421,PLLO890NZ,dcp Wolbórz,51.5031,19.8479,11961.4695859151,PL
PLLU0010,157578.798,PLLU0010Z,dcp Gorzowska Oczyszczalnia Ścieków,52.7139,15.1507,1661.83532983065,PL
PLLU0020,194323.347,PLLU0020Z,dcp Łącza,52.0168,15.4339,62927.8038314022,PL
PLLO0880Na,2274.525,PLLO0880NaZ,dcp Rokiciny,51.6656,19.8007,2316.97816872597,PL
PLLO0902N,1988.298,PLLO0902NZ,dcp LIBISZÓW,51.4399,20.3273,4614.20064815879,PL
PLLO0910N,5125.616,PLLO0910NZ,dcp Uniejów,51.5947,18.4717,2075.30380882695,PL
PLLO5010,78.48,PLLO5010Z,dcp Kopydłów,51.1439,18.2935,7655.34471680992,PL
PLLO0830N,1162.924,PLLO0830NZ,dcp Lipce Reymontowskie,51.912,19.9834,1769.03129626065,PL
PLLO0840N,1961.28,PLLO0840NZ,dcp Mokrsko,51.1767,18.4627,761.703137159348,PL
PLLO0870NA,2728.44,PLLO0870NZ,dcp Oczyszczalnia Ścieków w Paradyżu,51.3086,20.1266,1393.94546204805,PL
PLLO0880N,4996.151,PLLO0880NZ,dcp ECOLO-CHIEF,51.1824,20.1645,23001.0820520027,PL
PLLO0790N,1069.224,PLLO0790NZ,dcp GminnaOczyszczalnia ścieków w Krzeczowie,51.1963,18.7629,15751.1077424251,PL
PLLO0801N,1915.599,PLLO0801NZ,dcp Spała,51.3594,20.1385,871.268025919795,PL
PLLO0802N,0,PLLO0802NZ,dcp Zakościele,51.5343,20.2694,90563.5255583031,PL
PLLO0810,4072.68,PLLO0810Z,dcp BOLESŁAWIEC,51.2059,18.1842,12124.8699338948,PL
PLLO0590,416.556,PLLO0590Z,dcp Bartoszówka,51.639,20.3257,2127.27064425126,PL
PLLO0630,3059.247,PLLO0630Z,dcp Lgota Wielka typ SUPERBOS 500,51.1531,19.3349,627.080489993095,PL
PLLO0720,5638.572,PLLO0720Z,dcp Żurawia,51.4828,20.2821,551.203854233027,PL
PLLO0780N,1951.695,PLLO0780NZ,dcp Osjaków,51.2936,18.7884,12121.0339146666,PL
PLLO0450,2258.789,PLLO0450Z,dcp GOŚ Czarnocin bio-pak 500,51.605,19.6929,10690.6410556752,PL
PLLO0470,6081.75,PLLO0470Z,dcp Lubochnia,51.5921,20.0532,6912.03044511471,PL
PLLO0490,4516.404,PLLO0490Z,dcp Szczerców,51.2001,19.6872,28.0690355300903,PL
PLLO0540,2340.624,PLLO0540Z,dcp Gidle,50.9658,19.4539,12566.7502296539,PL
PLLO0403,2572.83,PLLO0403Z,dcp Żarnowica,51.4674,19.8723,825.092874750495,PL
PLLO0410,3509.73,PLLO0410Z,dcp Przedbórz,51.0901,19.8752,49137.4889304247,PL
PLLO0420,5733.522,PLLO0420Z,dcp Gminna Oczyszczalnia Ścieków,51.6642,19.4719,46660.9035628289,PL
PLLO0430,9920.73,PLLO0430Z,dcp Miejska Komunalna Oczyszczalnia Ścieków w Pajęcznie,51.1503,18.9737,5987.52608972788,PL
PLLO0370,4133.376,PLLO0370Z,dcp Oczyszczalnia Wartkowice,51.9765,19.0149,265992.709112354,PL
PLLO0380,2816.582,PLLO0380Z,dcp Gorzkowice,51.227,19.6263,7984.98865670711,PL
PLLO0390,7671.972,PLLO0390Z,dcp Stryków,51.9055,19.5731,12534.3093108833,PL
PLLO0402,963.895,PLLO0402Z,dcp Psary Stare,51.4948,19.7561,1523.28058856353,PL
PLLO0330,6682.236,PLLO0330Z,dcp Moszczenica,51.5005,19.7192,10938.4006950003,PL
PLLO0340,5276.048,PLLO0340Z,dcp Miejska Oczyszczalnia Ścieków w Sulejowie,51.3756,19.8562,28848.5839711051,PL
PLLO0350,9875.165,PLLO0350Z,dcp Hydrocentrum,51.4508,20.4938,13649.2575424686,PL
PLLO0360,4806.44,PLLO0360Z,dcp Tuszyn,51.6154,19.5564,3634.68881508708,PL
PLLO0292,2153.357,PLLO0292Z,dcp Trębaczew,51.109,18.8914,70390.2049074881,PL
PLLO0300,13221.18,PLLO0300Z,dcp Oczyszczalnia Ścieków w Wieruszowie,51.3056,18.1504,5009.28299726546,PL
PLLO0310,12578.984,PLLO0310Z,dcp Koluszki,51.6964,19.8603,328.700625298545,PL
PLLO0320,8747.375,PLLO0320Z,dcp ŻYCHLIN,52.2394,19.6335,12718.7195442747,PL
PLLO0260,8391.215,PLLO0260Z,dcp Pawlikowice,52.2482,19.1922,8640.24166023452,PL
PLLO0270,2866.488,PLLO0270Z,dcp komunalna,51.3932,18.2552,14165.8419924863,PL
PLLO0280,7761.672,PLLO0280Z,dcp Zelów,51.4577,19.2138,8952.12824183702,PL
PLLO0291,9481.909,PLLO0291Z,dcp Działoszyn,51.1097,18.869,6120.84854777157,PL
PLLO0220,7117.954,PLLO0220Z,dcp Gminna Oczyszczalnia Ścieków w Kraszewie,51.7156,19.6666,22543.3927779235,PL
PLLO0230,3269.72,PLLO0230Z,dcp WARTA,51.7181,18.6293,201044.873500138,PL
PLLO0240,25805.461,PLLO0240Z,dcp Oczyszczalnia ścieków w Żydomicach,51.7898,20.266,43711.5021987129,PL
PLLO0250,10174.788,PLLO0250Z,dcp Miejska Oczyszczalnia Ścieków,51.9738,19.7092,46432.5490336688,PL
PLLO0180,15492.798,PLLO0180Z,dcp Brzeziny,51.4921,19.4512,438.408428922296,PL
PLLO0190,8318.933,PLLO0190Z,dcp Poddębice,51.5418,18.5645,908.22660368681,PL
PLLO0200,3099.42,PLLO0200Z,dcp Wola Krzysztoporska,51.3455,19.5727,2702.7864299342,PL
PLLO0210,18330.527,PLLO0210Z,dcp Łęczyca,52.0623,19.2077,22659.0634442334,PL
PLLO0140,21446.095,PLLO0140Z,dcp Łask,51.5978,19.1103,50721.0414167622,PL
PLLO0150,27493.125,PLLO0150Z,dcp OPOCZNO,51.3821,20.3072,45051.1272053826,PL
PLLO0160,21727.42,PLLO0160Z,dcp Oczyszczalnia Ścieków w Cedrowicach,51.9889,19.2821,24883.6025816239,PL
PLLO0170,23308.029,PLLO0170Z,dcp Ruda Bugaj,51.8412,19.2744,123058.363481015,PL
PLLO0100,342.24,PLLO0100Z,dcp Michowice,51.8231,20.0995,4000.88398748636,PL
PLLO0110,73555.384,PLLO0110Z,dcp Mokra Prawa,51.9771,20.1116,45665.5721589401,PL
PLLO0120,90318.336,PLLO0120Z,dcp Zgierz,51.8496,19.383,46431.0038644373,PL
PLLO0130,33517.96,PLLO0130Z,dcp Wieluń,51.2314,18.5794,38937.0045219073,PL
PLLO0060,52469.261,PLLO0060Z,dcp Radomsko,51.0439,19.4179,47495.6880374514,PL
PLLO0070,59534.951,PLLO0070Z,dcp Bełchatów,51.3453,19.3847,60184.5274383835,PL
PLLO0080,52395.645,PLLO0080Z,dcp Oczyszczalnia Ścieków MPWiK Sieradz Sp. z o. o. w Sieradzu,51.632,18.713,12309.0665411949,PL
PLLO0090,77956.76,PLLO0090Z,dcp Tymienice,51.6122,18.9153,43517.8309517056,PL
PLLO0020,89421.326,PLLO0020Z,dcp Miejska Oczyszczalnia Ścieków,51.4791,19.8588,348.489598426968,PL
PLLO0030,198245.348,PLLO0030Z,dcp Kutno,52.2,19.4078,73472.9515266209,PL
PLLO0040,101367.651,PLLO0040Z,dcp OCZYSZCZALNIA ŚCIEKÓW W TOMASZOWIE MAZOWIECKIM,51.5355,20.0576,138284.430981966,PL
PLLO0050,85652.95,PLLO0050Z,dcp miejska oczyszczalnia w Łowiczu,52.1048,19.9733,129850.059330009,PL
PLLE1280N,1555.008,PLLE1280NZ,dcp Oczyszczalnia ścieków w Kamionce,51.4626,22.4709,6418.15294951107,PL
PLLE1290N,1786,PLLE1290NZ,dcp Wola Sernicka,51.4527,22.6703,1525.63574219868,PL
PLLE1300N,1007.16,PLLE1300NZ,dcp Jedlanka,51.5133,22.9222,2646.96138634905,PL
PLLO0010,895988.206,PLLO0010Z,dcp GOŚ ŁAM,51.7249,19.3375,427449.722650768,PL
PLLE1200N,2645.757,PLLE1200NZ,dcp Gminna Oczyszczalnia Ścieków w Konstantynowie,52.2024,23.098,2929.88667784445,PL
PLLE1210N,3225.933,PLLE1210NZ,dcp Zamch,50.3095,22.9994,1748.32756464556,PL
PLLE1220N,2616.3,PLLE1220NZ,dcp Bytyń,51.3375,23.633,50709.1689441614,PL
PLLE1250N,3558.868,PLLE1250NZ,dcp Bystyrzyca,50.9767,22.411,10166.3608887419,PL
PLLE1100N,1848.675,PLLE1100NZ,dcp Urzędów,50.9932,22.1278,10100.6068135812,PL
PLLE1110N,3116.88,PLLE1110NZ,dcp bez nazwy,51.5513,22.5399,192.637675821781,PL
PLLE1120N,2239.784,PLLE1120NZ,dcp Jeziorzany,51.5994,22.2558,19251.4715911103,PL
PLLE1130N,1287.612,PLLE1130NZ,dcp Piotrowice,51.0859,22.4785,4285.40435262513,PL
PLLE0970N,1348.958,PLLE0970NZ,dcp biologiczno-mechaniczna,51.232,21.5813,23124.0456306161,PL
PLLE1040N,2118.214,PLLE1040NZ,dcp Gminna oczyszczalnia ścieków w Biszczy,50.4395,22.617,45658.9895839414,PL
PLLE1060N,1984.64,PLLE1060NZ,dcp Różaniec Pierwszy,50.2,22.51,499.262310504913,PL
PLLE1080N,1403.061,PLLE1080NZ,dcp ECOLO-CHIEF,50.6551,23.9196,1741.16380784288,PL
PLLE0943N,270.375,PLLE0943NZ,dcp NIEMIRÓWEK – KOL.,50.5511,23.3543,687.312991155311,PL
PLLE0944N,496.975,PLLE0944NZ,dcp WIEPRZÓW TARNAWACKI,50.5024,23.425,647.855009151623,PL
PLLE0950N,2858.93,PLLE0950NZ,dcp Urszulin,51.3914,23.2021,2055.60888199136,PL
PLLE0960N,2167.152,PLLE0960NZ,dcp Dębina,51.9465,21.9849,6434.35604378488,PL
PLLE0910N,2028.766,PLLE0910NZ,dcp Czemierniki,51.6814,22.6401,2492.26077348273,PL
PLLE0930N,4448.136,PLLE0930NZ,dcp Wohyń,51.7624,22.776,4940.09531730786,PL
PLLE0941N,1529.55,PLLE0941NZ,dcp TARNAWATKA,50.5431,23.3278,81.3841559886932,PL
PLLE0942N,270.375,PLLE0942NZ,dcp PAŃKÓW,50.5147,23.3586,2803.03740344616,PL
PLLE0840N,1980.664,PLLE0840NZ,dcp Wierzbica,51.2561,23.2974,1867.8301576674,PL
PLLE0860N,731.11,PLLE0860NZ,dcp Pszczela Wola,51.1156,22.4999,4799.5743594896,PL
PLLE0890N,1952.979,PLLE0890NZ,dcp Wojcieszków,51.7664,22.3326,11303.8200588915,PL
PLLE0900N,1962.378,PLLE0900NZ,dcp Siemień,51.6352,22.7826,7140.40410267469,PL
PLLE0800,2831.268,PLLE0800Z,dcp Józefów,50.4748,23.0321,3942.31296837423,PL
PLLE0810N,3076.92,PLLE0810NZ,dcp Lipiny Dolne,50.4992,22.5033,243.402121406049,PL
PLLE0820N,3840.71,PLLE0820NZ,dcp Tereszpol,50.5726,22.8685,1429.11074906588,PL
PLLE0830N,1825.914,PLLE0830NZ,dcp Kamień,51.0913,23.5975,2824.13966918318,PL
PLDO0270,15329.376,PLDO0270Z,dcp Oczyszczalnia Góra,51.6741,16.5464,14668.5222316086,PL
PLDO0280,14485.158,PLDO0280Z,dcp Trzebnica,51.3251,17.0693,14262.310193181,PL
PLDO0290,60739.2,PLDO0290Z,dcp Z.CH.ROKITA,51.2615,16.7365,33778.3023496717,PL
PLDO0300,21750.444,PLDO0300Z,dcp Miejska Oczyszczalnia Ścieków,50.47,16.3,0,PL
PLDO0241,19079.814,PLDO0241Z,dcp Ziębice,50.6126,17.032,10511.0692307008,PL
PLDO0242,4546.924,PLDO0242Z,dcp Henryków,50.661,17.0214,4581.79816084355,PL
PLDO0250,15739.34,PLDO0250Z,dcp Gorce,50.7565,16.1526,18211.2411607355,PL
PLDO0260,22555.848,PLDO0260Z,dcp Złotoryja,51.1346,15.9329,25920.2832345478,PL
PLDO0210,0,PLDO0210Z,dcp Ząbkowice Śląskie,50.5747,16.8266,21840.0483547845,PL
PLDO0212,16862.238,PLDO0212Z,dcp Oczyszczalnia ścieków w Budzowie,50.5806,16.6684,196.832047045231,PL
PLDO0220,15322.125,PLDO0220Z,dcp Jurczyce,51.0422,16.7813,8576.10582027398,PL
PLDO0230,11020.104,PLDO0230Z,dcp oczyszczalnia ścieków Kowary,50.8058,15.8177,11764.0282100737,PL
PLDO0170,35495.448,PLDO0170Z,dcp Oława,50.9536,17.3061,64032.2312947381,PL
PLDO0180,12263.328,PLDO0180Z,dcp Międzygminna Oczyszczalnia Ścieków w Ścinawce Dolnej,50.5013,16.519,38549.3183323862,PL
PLDO0190,32412.352,PLDO0190Z,dcp Małuszów,51.1028,16.1885,326.273836493492,PL
PLDO0200,27297.825,PLDO0200Z,dcp Miejska Oczyszczalnia Ścieków w Polkowicach,51.4419,15.9947,25104.7714081532,PL
PLDO0130,28671.542,PLDO0130Z,dcp Strzegom,50.9631,16.3797,29216.4736915659,PL
PLDO0140,34141.648,PLDO0140Z,dcp Zakład Oczyszczania Ścieków i Zagospodarowania Osadów,51.1888,15.0073,10301.9888570232,PL
PLDO0150,36907.36,PLDO0150Z,dcp Komunalna Oczyszczalnia Ścieków w Oleśnicy,51.202,17.3412,36021.5320898877,PL
PLDO0160,41358.924,PLDO0160Z,dcp Oczyszczalnia ścieków w Dzierżoniowie,50.7473,16.6203,27924.5007321239,PL
PLDO0080,29059.056,PLDO0080Z,dcp KIŁODZKO,50.4618,16.6559,48245.4529395886,PL
PLDO0090,118691.328,PLDO0090Z,dcp Legnica,51.216,16.2064,158756.067684893,PL
PLDO0100,55718.01,PLDO0100Z,dcp Oczyszczalnia ścieków w Bolesławcu,51.2816,15.5567,34464.5078711435,PL
PLDO0120,38015.09,PLDO0120Z,dcp LUBAŃ,51.1311,15.3006,32747.2460665591,PL
PLDO0050,78042.5,PLDO0050Z,dcp Głogów,51.6735,16.0593,221652.19341002,PL
PLDO0061,31290.15,PLDO0061Z,dcp Oczyszczalnia ścieków w Bielawie,50.7162,16.6324,39638.2569386512,PL
PLDO0062,197.622,PLDO0062Z,dcp Piława Dolna,50.6926,16.7016,1365.3844948113,PL
PLDO0070,84159.36,PLDO0070Z,dcp ŚPWiK Świdnica Sp. z o.o.,50.8738,16.5045,77956.6195127438,PL
PLDO0011,1032055.632,PLDO0011Z,dcp Wrocławska Oczyszczalnia Ścieków,51.2032,16.9113,729640.43743601,PL
PLDO0020,131784.26,PLDO0020Z,dcp CIERNIE,50.8719,16.3392,196337.168771196,PL
PLDO0030,84320,PLDO0030Z,dcp Oczyszczalnia ścieków dla miasta Lubin,51.3859,16.2437,83006.0434908513,PL
PLDO0040,96894.442,PLDO0040Z,dcp Jelenia Góra,50.9113,15.7255,99103.2368859318,PL
NO5416.0012.01,8330,NO5416.0012.01,Bardu renseanlegg,68.866818,18.376725,3692.22537630424,NO
NO5418.0019.01,2181.96,NO5418.0019.01,Øverbygd renseanlegg,69.021552,19.28303,19339.4531091545,NO
NO5418.0022.01,8252.58,NO5418.0022.01,Andslimoen renseanlegg,69.091453,18.592749,20404.73418045,NO
NO5437.0005.02,5852.95,NO5437.0005.02,Karasjok tettsted avløpsrenseanlegg,69.470492,25.505444,33872.263133002,NO
NO5402.0080.01,8164.6133241952,NO5402.0080.01,Holstneset renseanlegg,68.807006,16.54773,10028.0265347958,NO
NO5402.0081.01,1665.0371963396,NO5402.0081.01,Trondenes (Revsbekken) renseanlegg,68.816029,16.551781,1628.87521421909,NO
NO5406.0071.01,59.081339709,NO5406.0071.01,U2 Rica Hotell renseanlegg,70.66293,23.675302,7973.90811574971,NO
NO5406.0123.01,12288.918660291,NO5406.0123.01,Renseanlegg Hammerfest tettsted (Rossmolla),70.672857,23.649881,6380.6399777988,NO
NO5402.0074.01,3539.831467802,NO5402.0074.01,Medkila renseanlegg,68.76678,16.558497,702.531467437744,NO
NO5402.0075.01,8009.827068776,NO5402.0075.01,Stangnes renseanlegg,68.786637,16.593823,9957.20955071505,NO
NO5402.0076.01,2535.8907082604,NO5402.0076.01,Ruggevik renseanlegg,68.744263,16.566318,150.482467263937,NO
NO5402.0077.01,1202.1250305576,NO5402.0077.01,Holte renseanlegg,68.756569,16.572402,3142.83213996887,NO
NO5401.0152.01,20191.1382146456,NO5401.0152.01,Breivika avløpsrenseanlegg,69.675236,18.97869,10977.0152343139,NO
NO5401.0155.01,39600,NO5401.0155.01,Tomasjord  avløpsrenseanlegg,69.661821,19.014624,22956.0878259335,NO
NO5401.0159.01,22411.7286743784,NO5401.0159.01,Langnes avløpsrenseanlegg,69.683774,18.902878,23675.9347232885,NO
NO5402.0072.01,4478.6752040692,NO5402.0072.01,Bergsodden renseanlegg,68.82,16.520429,27926.3189644106,NO
NO5037.0051.01,17820,NO5037.0051.01,Levanger sentrum Havna renseanlegg,63.751371,11.302416,19033.1540226494,NO
NO5038.0060.01,35640,NO5038.0060.01,Ørin renseanlegg,63.794221,11.450145,18753.0952532338,NO
NO5059.0029.01,13720,NO5059.0029.01,Gammelosen renseanlegg,63.315453,9.848353,52550.5666403132,NO
NO5401.0143.01,14629.133110976,NO5401.0143.01,Strandvegen renseanlegg,69.642384,18.94571,7278.37735581584,NO
NO5027.0018.01,4900,NO5027.0018.01,Moøya renseanlegg,63.04312,10.290088,7009.09225497395,NO
NO5028.0029.01,6930,NO5028.0029.01,Varmbo renseanlegg,63.292879,10.261816,21936.7734571453,NO
NO5034.0007.01,3120,NO5034.0007.01,Meråker renseanlegg,63.423523,11.732818,2052.46711297333,NO
NO5035.0071.01,34650,NO5035.0071.01,Stjørdal ARA renseanlegg,63.474295,10.882259,27624.1673229486,NO
NO5006.0072.01,31680,NO5006.0072.01,Løsberga renseanlegg,64.002971,11.498495,24922.9141683262,NO
NO5007.0058.01,21937.5,NO5007.0058.01,Tiendeholmen renseanlegg,64.463634,11.503655,41937.2850703683,NO
NO5021.0014.03,10584,NO5021.0014.03,Oppdal sentrum renseanlegg,62.588438,9.642481,6318.22983317077,NO
NO5025.0023.01,4900,NO5025.0023.01,Røros renseanlegg,62.570033,11.363453,4901.53067043424,NO
NO4650.0016.01,7999.992,NO4650.0016.01,Byrkjelo,61.730468,6.49605,10705.810137365,NO
NO5001.0210.01,114812.4999999,NO5001.0210.01,Ladehammeren renseanlegg,63.448027,10.42566,185677.100949535,NO
NO5001.0214.01,182187.5000001,NO5001.0214.01,Høvringen renseanlegg,63.447084,10.33738,7421.57846185565,NO
NO5001.0465.01,5880,NO5001.0465.01,Ostangen renseanlegg,63.31253,10.457813,19952.5341365077,NO
NO4627.0137.01,919.82133834633,NO4627.0137.01,Strusshamn renseanlegg,60.404952,5.19342,62.8952732086182,NO
NO4627.0196.01,270.91512069249,NO4627.0196.01,Tveitevågen renseanlegg,60.446061,5.132402,5925.43470865488,NO
NO4647.0021.01,27860,NO4647.0021.01,Førde by - Øyrane reinseanlegg,61.458229,5.834824,31159.2640594542,NO
NO4627.0122.01,71.598996183675,NO4627.0122.01,Tømmervik (p),60.444314,5.161811,1765.43110620975,NO
NO4627.0123.01,856.60781018167,NO4627.0123.01,Hauglandshella,60.445437,5.153982,0,NO
NO4627.0124.01,231.567924589055,NO4627.0124.01,Kollevåg,60.451399,5.124615,510.676934242249,NO
NO4627.0125.01,138.708029192315,NO4627.0125.01,Ytre Skarholmen renseanlegg,60.397714,5.200261,3865.83054733276,NO
NO4627.0117.01,260.59454466435,NO4627.0117.01,"Fabrikken, Hetlevik",60.425609,5.148799,14.4192190170288,NO
NO4627.0119.01,92.885184237865,NO4627.0119.01,Lavik,60.436075,5.180991,1666.18446383625,NO
NO4627.0114.01,67.728780165425,NO4627.0114.01,Follesevågen,60.411985,5.154465,1111.26485127211,NO
NO4627.0115.01,204.476412522885,NO4627.0115.01,"Haugadalen, Follese",60.41427,5.154559,74.1845159955479,NO
NO4627.0108.01,87.079860225885,NO4627.0108.01,Søre Østerdalen,60.433716,5.23321,1979.78391791135,NO
NO4627.0109.01,142.230438370485,NO4627.0109.01,Gullskjærvik,60.416317,5.249239,6225.69048500061,NO
NO4627.0111.01,141.262884358225,NO4627.0111.01,Skarholmen renseanlegg,60.4024,5.21425,216.133752822876,NO
NO4627.0112.01,123.846912322285,NO4627.0112.01,Sveabrotet,60.401121,5.188962,1035.20964813232,NO
NO4627.0104.01,157.388784398345,NO4627.0104.01,Skogsvik I,60.453301,5.220148,461.231842041016,NO
NO4627.0107.01,69.01885217664,NO4627.0107.01,Alvheimsfeltet,60.43557,5.234869,991.584838747978,NO
NO4627.0099.01,62.891010165705,NO4627.0099.01,Flensberghamn (p),60.486349,5.201733,97.806088924408,NO
NO4627.0100.01,63.85856416257,NO4627.0100.01,Kyrkjevika (p),60.486043,5.20739,27.1653509140015,NO
NO4627.0102.01,105.78590427304,NO4627.0102.01,Hopshamn,60.472963,5.217458,839.496881961823,NO
NO4627.0103.01,83.85468022094,NO4627.0103.01,Olaviken,60.457812,5.226758,3571.5071477592,NO
NO4627.0061.01,78.37187419252,NO4627.0061.01,Skogliheimen I,60.467082,5.223368,33.3082475662231,NO
NO4627.0062.01,52.24791613861,NO4627.0062.01,Skogliheimen II,60.465733,5.224308,580.873520758934,NO
NO4627.0063.01,3108.42849192504,NO4627.0063.01,Kleppestø renseanlegg,60.407345,5.229139,8295.60958814621,NO
NO4627.0066.01,158.67885640956,NO4627.0066.01,"Skiftesvik, Strusshamn",60.405301,5.179878,48.9104378848363,NO
NO4627.0050.01,201.25123251794,NO4627.0050.01,Askehavn,60.480659,5.217198,2128.94068956375,NO
NO4627.0052.01,101.27065225688,NO4627.0052.01,Kyrkjevika (o),60.501424,5.162834,35407.9388218801,NO
NO4627.0056.01,872.08867422388,NO4627.0056.01,Drageide (Florvåg),60.42342,5.244202,5609.73067322373,NO
NO4627.0046.01,12.255684037265,NO4627.0046.01,Bakervågen I,60.430536,5.236125,1340.57646608353,NO
NO4627.0047.01,123.20187630898,NO4627.0047.01,Bakervågen II,60.428775,5.233637,54.9311919358768,NO
NO4627.0048.01,177.384900456715,NO4627.0048.01,Ekrene Florvåg,60.414252,5.241989,0,NO
NO4627.0049.01,1284.9117152725,NO4627.0049.01,Badeelva,60.439549,5.228441,19.0241720468245,NO
NO4627.0040.01,218.02216855597,NO4627.0040.01,"Træet, Follese",60.406755,5.159988,702.824294108897,NO
NO4626.0052.01,771.25187733903,NO4626.0052.01,Bildøy Sør,60.348989,5.114311,14768.375933554,NO
NO4626.0054.01,672.89882178156,NO4626.0054.01,Valen,60.362131,5.161291,8574.14316481352,NO
NO4626.0079.01,4664.18875768863,NO4626.0079.01,Våge RA,60.387185,5.121415,683.024922370911,NO
NO4626.0127.01,123.55602604992,NO4626.0127.01,Knarrevik avløpsanlegg,60.374385,5.160138,2557.89464473724,NO
NO4624.0067.01,87.68176120393,NO4624.0067.01,Tøkjesundet sør,60.141485,5.370285,7276.3587361481,NO
NO4626.0037.01,868.78532410644,NO4626.0037.01,Brattholmen,60.350144,5.160851,663.870256900787,NO
NO4626.0043.01,884.15298903387,NO4626.0043.01,Hjelteryggen,60.380961,5.157511,144.439208030701,NO
NO4626.0049.01,23.66620399212,NO4626.0049.01,Søre Straumetoppen,60.348888,5.101353,9533.71818470955,NO
NO4624.0031.01,136.494288073285,NO4624.0031.01,Solstrand fjordhotell,60.189541,5.488143,5906.27350632846,NO
NO4624.0033.01,1663.24165592601,NO4624.0033.01,"Halhjem, Auredalen",60.141093,5.433192,6008.99620642513,NO
NO4624.0066.01,144.629709211535,NO4624.0066.01,Solstrandsfjæra,60.187653,5.484735,38.0089008874234,NO
NO4622.0023.01,140.289281,NO4622.0023.01,Laupsa,60.383882,6.229098,84.1408916115761,NO
NO4622.0031.01,4253.57099987875,NO4622.0031.01,Tolo renseanlegg - Norheimsund,60.36909,6.160611,1990.51888843626,NO
NO4622.0058.01,1449.88971912125,NO4622.0058.01,Notaneset renseanlegg,60.382163,6.200659,944.117388598621,NO
NO4624.0030.01,7417.69621113795,NO4624.0030.01,Oselv,60.182679,5.466681,8470.74299965054,NO
NO4618.0052.01,2100,NO4618.0052.01,Håra AR,59.809891,6.772085,342.385121773928,NO
NO4618.0053.01,3000,NO4618.0053.01,Seljestad AR,59.905503,6.617447,342.084330430254,NO
NO4621.0040.02,19800,NO4621.0040.02,Voss reinseanlegg,60.615452,6.411539,16634.6822564714,NO
NO4621.0069.01,2280,NO4621.0069.01,Myrkdalen reinseanlegg,60.854192,6.492842,6046.95515729114,NO
PLKP0270,12950.791,PLKP0270Z,dcp Sikorz,53.4443,17.5489,12487.0865258165,PL
PLKP0280,4752.264,PLKP0280Z,dcp Warlubie,53.5879,18.6379,3961.08093948662,PL
PLKP0290,7420.056,PLKP0290Z,dcp Runowo Młyn,53.3216,17.4726,1137.78764950484,PL
PLKP0300,4797.075,PLKP0300Z,dcp Oczyszczalnia Ścieków w Łabiszynie,52.9627,17.921,23914.5930054602,PL
PLKP0220,12716.586,PLKP0220Z,dcp Golub-Dobrzyń,53.1045,19.0331,41207.3659238843,PL
PLKP0230,6890.4,PLKP0230Z,dcp Strzelno Klasztorne,52.6439,18.196,3683.21914631128,PL
PLKP0240,15310.35,PLKP0240Z,dcp Gniewkowo,52.9085,18.422,415.803452968597,PL
PLKP0250,19493.276,PLKP0250Z,dcp Sadłogoszcz,52.8597,17.9885,91718.2959284196,PL
PLKP0180,20471.264,PLKP0180Z,dcp Chełmno,53.3697,18.4347,70976.764571032,PL
PLKP0190,27727.416,PLKP0190Z,dcp Komunalna Oczyszczalnia Ścieków,52.8678,17.7156,32912.1809544461,PL
PLKP0200,23617.724,PLKP0200Z,dcp Lipno,52.851,19.1382,22712.7640168071,PL
PLKP0210,12861.864,PLKP0210Z,dcp Mogilno,52.6425,17.9668,27385.2059949897,PL
PLKP0130,22714.685,PLKP0130Z,dcp Kruszwica,52.6964,18.3169,68390.7422347986,PL
PLKP0140,20866.428,PLKP0140Z,dcp Wąbrzeźno,53.2684,18.9537,7971.51502446085,PL
PLKP0160,21639.834,PLKP0160Z,dcp Koronowo,53.2986,17.9503,31602.9907384499,PL
PLKP0170,15024.232,PLKP0170Z,dcp Ciechocinek,52.9056,18.7829,13350.2474519061,PL
PLKP0080,88524.48,PLKP0080Z,dcp Brodnica,53.2379,19.3773,58097.3697292143,PL
PLKP0090,27832.66,PLKP0090Z,dcp NAKŁO NAD NOTECIĄ,53.1315,17.5397,25616.9474446191,PL
PLKP0110,19881.297,PLKP0110Z,dcp Rypin,53.079,19.4057,22663.6276107784,PL
PLKP0120,22073.436,PLKP0120Z,dcp Tuchola,53.5698,17.8762,34997.0250824438,PL
PLKP0040,114662.682,PLKP0040Z,"dcp Nowa Wieś, kolo Grudziądza",53.537,18.7968,89353.8874294052,PL
PLKP0050,41256.27,PLKP0050Z,"dcp Biologiczna oczyszczalnia Ścieków Zakładu Mondi Świecie S.A., do której trafia ok 4% ścieków komunalnych z Aglomeracji Świecie-Bukowiec",53.3784,18.441,22550.4158123047,PL
PLKP0060,5170.676,PLKP0060Z,"dcp Komunalna Oczyszcalnia Ścieków w Choceniu ul. Włocławska 18, 87-850 Choceń",52.4858,19.0119,1245.20209769439,PL
PLKP0070,78014.812,PLKP0070Z,dcp Oczyszczalnia Ścieków Komunalnych w Inowrocławiu,52.7616,18.225,42315.904550625,PL
PLKP0011,266239.789,PLKP0011Z,dcp Toruń Centralna Oczyszczalnia Ścieków,53.0111,18.5369,190563.23333491,PL
PLKP0021,269714.83,PLKP0021Z,dcp Fordon,53.179,18.1958,44715.8424262479,PL
PLKP0022,241597.84,PLKP0022Z,dcp Kapuściska,53.1143,18.1322,391460.833323528,PL
PLKP0030,111997.896,PLKP0030Z,dcp Grupowa Oczyszczalnia Ścieków,52.6896,19.0181,191752.024421043,PL
PLDO5020,2519.95,PLDO5020Z,dcp RUDNA,51.5187,16.2338,450.870669364929,PL
PLDO5030,2053.608,PLDO5030Z,dcp MECHANICZNO-BIOLOGICZNA OCZYSZCZALNIA ŚCIEKÓW KOMUNALNYCH WE WLENIU,51.0253,15.6617,10499.9320636988,PL
PLDO5050,0,PLDO5050Z,dcp Oczyszczalnia ścieków w Lutomi Dolnej,50.7645,16.5575,775.170969843864,PL
PLK0960N,1335.945,PLK0960NZ,dcp ZBÓJNO,53.0177,19.1729,14356.1866074651,PL
PLDO1480N,3438,PLDO1480NZ,dcp Miłkowice,51.1527,16.435,18629.4351595631,PL
PLDO1500N,1687.59,PLDO1500NZ,dcp Dobrzejów,51.2639,16.1969,5.1100058555603,PL
PLDO1510N,0,PLDO1510NZ,dcp Czernica,51.0052,16.2101,10351.6657099798,PL
PLDO5010,9174.753,PLDO5010Z,dcp Komunalna Oczyszczalnia Śćieków w Gryfowie Śląskim,51.0262,15.3979,8531.10582054779,PL
PLDO1430N,8139.162,PLDO1430NZ,dcp Chocianów,51.2544,15.5443,17328.9061217308,PL
PLDO1440N,2900.115,PLDO1440NZ,dcp DZIEĆMOROWICE,50.7764,16.3815,7088.40956134349,PL
PLDO1460N,4201.964,PLDO1460NZ,dcp Oczyszczalnia Ścieków w Biskupicach,51.1403,16.2241,4833.22060070094,PL
PLDO1470N,5022.65,PLDO1470NZ,dcp Bierutów,51.1197,17.5264,9137.2535206899,PL
PLDO1350N,2089.952,PLDO1350NZ,dcp Kotla,51.7343,16.0481,6610.23173050582,PL
PLDO1360N,3113.775,PLDO1360NZ,dcp Płonica,50.4597,16.8846,1305.85448361933,PL
PLDO1380N,3582.586,PLDO1380NZ,dcp Niemcza,50.7317,16.8371,8068.69177685678,PL
PLDO1391N,2618,PLDO1391NZ,dcp Piekary,51.0402,16.4185,4188.31489815563,PL
PLDO1260N,2227.62,PLDO1260NZ,dcp Gminna Oczyszczalnia Ścieków,50.8099,17.1874,27071.7654375583,PL
PLDO1321N,2323.173,PLDO1321NZ,dcp Mierczyce,51.0895,16.3194,1763.1469995603,PL
PLDO1322N,206.622,PLDO1322NZ,dcp Budziszów Wielki,51.0872,16.4214,1018.57153755426,PL
PLDO1340N,1098.58,PLDO1340NZ,dcp Lubiąż,51.2642,16.4778,919.862814426422,PL
PLDO1190,4469.4,PLDO1190Z,dcp Oczyszczalnia ścieków w Sułowie,51.4934,17.1593,2890.70305933058,PL
PLDO1210,2612.864,PLDO1210Z,dcp Borek Strzeliński,50.8738,17.1053,1359.64440635056,PL
PLDO1240,2550.782,PLDO1240Z,dcp OCZYSZCZALNIA ŚCIEKÓW W KONDRATOWICACH,50.7725,16.936,375.597161223646,PL
PLDO1250,4457.536,PLDO1250Z,dcp Piotrowice,51.0265,16.6838,2024.54615343548,PL
PLDO1120,2459.072,PLDO1120Z,dcp Stara Kamienica,50.9332,15.5818,4534.23783028126,PL
PLDO1130,3035.25,PLDO1130Z,dcp Pietrowice Małe,51.2431,16.5712,14542.7337573785,PL
PLDO1140,1201.088,PLDO1140Z,dcp Janowice Wielkie,50.8787,15.9114,3122.00947276503,PL
PLDO1170,1860,PLDO1170Z,dcp Chełmsko Śląskie,50.6741,16.099,0,PL
PLDO1060,2985.44,PLDO1060Z,dcp RADWANICE,51.5761,15.924,590.275129318237,PL
PLDO1080,2655.03,PLDO1080Z,dcp Oczyszczalnia Ścieków w Sieniawce,50.8946,14.8342,467.674188613892,PL
PLDO1090,2519.946,PLDO1090Z,dcp MOŚCISKO,50.7894,16.6158,4497.91816228628,PL
PLDO1110,3941.42,PLDO1110Z,dcp KROŚNICE,51.4774,17.3617,3764.78701406717,PL
PLDO1010,4012.285,PLDO1010Z,dcp Malczyce,51.2304,16.4722,3565.47975340486,PL
PLDO1020,4640.636,PLDO1020Z,dcp Dobroszyce,51.2606,17.3279,5014.71328551928,PL
PLDO1030,2629.751,PLDO1030Z,dcp Oczyszczalnia Ścieków w Międzylesiu,50.1577,16.6614,3583.46733516455,PL
PLDO1050,4605.068,PLDO1050Z,dcp Żórawina,50.989,17.016,31291.1288115568,PL
PLDO0971,3084.593,PLDO0971Z,dcp Bardo,50.5058,16.7475,3447.25953406841,PL
PLDO0972,418.96,PLDO0972Z,dcp Przyłęk,50.5086,16.771,347.525322586298,PL
PLDO0980,2639.289,PLDO0980Z,dcp Koźlice,51.6031,15.8858,1062.11520755291,PL
PLDO1001,4488.486,PLDO1001Z,dcp Kobierzyce,50.9726,16.953,22454.850498586,PL
PLDO0900,1369.594,PLDO0900Z,dcp MARCISZÓW,50.8545,16.0015,38974.9366563056,PL
PLDO0920,4862.936,PLDO0920Z,dcp oczyszczalnia ścieków Marczyce,50.8367,15.7011,842.904879212379,PL
PLDO0950,2073.085,PLDO0950Z,dcp Ołdrzychowice Kłodzkie,50.3662,16.6894,6051.67905890942,PL
PLDO0960,4044.527,PLDO0960Z,dcp Międzybórz,51.406,17.6582,2723.31302677095,PL
PLDO0860,4109.67,PLDO0860Z,dcp Miejska Oczyszczalnia Ścieków,51.0226,15.0573,4307.63323198259,PL
PLDO0870,2689.2,PLDO0870Z,dcp Mściwojów,51.0461,16.2867,9163.84732347541,PL
PLDO0880,19635.66,PLDO0880Z,dcp oczyszczalnia ścieków Szklarska Poręba,50.8288,15.5436,6512.96019146591,PL
PLDO0890,5118.552,PLDO0890Z,dcp Krosnowice,50.3952,16.6388,5862.91938105971,PL
PLDO0810,1808.933,PLDO0810Z,dcp Lubomierz,51.0153,15.5124,2753.73350214958,PL
PLDO0820,3502.99,PLDO0820Z,dcp Sulików,51.0834,15.0583,3262.44858785532,PL
PLDO0830,5341,PLDO0830Z,dcp Grębocice,51.6028,16.185,12869.7035195753,PL
PLDO0840,4024.852,PLDO0840Z,dcp Świerzawa,51.01,15.5321,688.962390892208,PL
PLDO0770,3554.03,PLDO0770Z,dcp Gromadka,51.3658,15.7729,1867.15707862377,PL
PLDO0780,7725.192,PLDO0780Z,dcp Golińsk,50.646,16.2041,6752.25122082233,PL
PLDO0790,8613.99,PLDO0790Z,dcp Żmigród,51.4755,16.8941,389.130287051201,PL
PLDO0800,2769.25,PLDO0800Z,dcp Strzeszów,51.2433,17.0323,2927.74025420099,PL
PLDO0720,7377.004,PLDO0720Z,dcp Oczyszczalnia ścieków w Przemkowie,51.5481,15.7581,5462.04030011594,PL
PLDO0730,6101.568,PLDO0730Z,dcp Lądek-Zdrój,50.3521,16.8566,5699.71668827534,PL
PLDO0740,7182.97,PLDO0740Z,dcp Stanowice,50.9683,17.3054,154.865097045898,PL
PLDO0750,5348.7,PLDO0750Z,dcp Oczyszczalnia ścieków w Piławie Górnej,50.6867,16.7335,6266.50537275895,PL
PLDO0690,10365.155,PLDO0690Z,"dcp oczyszczalnia ścieków
w Stroniu Śląskim",50.3134,16.8798,7816.83602882922,PL
PLDO0701,2472.242,PLDO0701Z,dcp Łagiewniki,50.7948,16.8493,2427.74492916092,PL
PLDO0702,1335.623,PLDO0702Z,dcp Sokolniki,50.8226,16.8228,3328.49689734727,PL
PLDO0710,7361.221,PLDO0710Z,dcp Pieńsk,51.2602,15.0375,9715.13698873296,PL
PLDO0661,6467.666,PLDO0661Z,dcp Tomaszów Bolesławiecki,51.2779,15.6629,7686.03360352106,PL
PLDO0662,2693.334,PLDO0662Z,dcp Raciborowice Dolne,51.2082,15.7061,3576.30392000731,PL
PLDO0670,2699.73,PLDO0670Z,dcp Wąsosz,51.5653,16.6868,44286.7052676547,PL
PLDO0680,8343.51,PLDO0680Z,dcp Siechnice,51.0505,17.158,24254.6210825443,PL
PLDO0620,3252.42,PLDO0620Z,dcp Wojcieszów,50.9539,15.9237,4038.44384811446,PL
PLDO0631,6981.8,PLDO0631Z,"dcp ul. Grunwaldzka 41, Obroniki Śląskie",51.2936,16.8942,5060.52651310712,PL
PLDO0632,2992.2,PLDO0632Z,"dcp ul. Gen. S. Maczka, Oborniki Śląskie",51.2883,16.9317,3050.12663327157,PL
PLDO0640,7424,PLDO0640Z,dcp Prochowice,51.2701,16.3856,18564.8752702957,PL
PLDO0580,5104.722,PLDO0580Z,dcp Mirsk,50.98,15.3908,9860.33207463473,PL
PLDO0590,9419.76,PLDO0590Z,dcp Sobótka,50.9019,16.7589,11527.2749304464,PL
PLDO0600,10849.464,PLDO0600Z,dcp MOŚ Twardogóra,51.3761,17.4606,8680.50886811316,PL
PLDO0610,3423.422,PLDO0610Z,dcp Oczyszczalnia ścieków w Kamieńcu Ząbkowickim,50.5177,16.8856,14550.7046123901,PL
PLDO0510,3839.94,PLDO0510Z,dcp Smolnik,51.0356,15.2591,9799.7621949017,PL
PLDO0540,8558.814,PLDO0540Z,dcp Oczyszczalnia dla m.Ścinawa,51.4263,16.4228,19630.2429692596,PL
PLDO0550,5898.4,PLDO0550Z,dcp Olszyna,51.0698,15.3659,7359.75791182462,PL
PLDO0560,5915.076,PLDO0560Z,dcp Świeradów Zdrój,50.9196,15.3453,4101.43202841282,PL
PLDO0470,10082.529,PLDO0470Z,dcp oczyszczalnia Syców,51.3206,17.7204,12941.5439019401,PL
PLDO0480,4747.257,PLDO0480Z,dcp oczyszczalnia ścieków Piechowice,50.855,15.6265,5377.80954456329,PL
PLDO0490,11163.096,PLDO0490Z,dcp Bystrzyca Kłodzka,50.3033,16.656,20154.1059781108,PL
PLDO0500,7243.962,PLDO0500Z,dcp Lubawka,50.7186,15.9945,8726.03709959984,PL
PLDO0430,20774.556,PLDO0430Z,dcp Jelcz-Laskowice,51.0171,17.2836,37601.1217744915,PL
PLDO0440,16583.496,PLDO0440Z,dcp Wołów,51.3448,16.6126,16336.7105254978,PL
PLDO0450,11328.009,PLDO0450Z,dcp Mirków,51.165,17.1786,13840.9355523773,PL
PLDO0460,16346.187,PLDO0460Z,dcp Oczyszczalnia Scieków w Kudowie-Zdroju,50.4364,16.2228,9051.78436865658,PL
PLDO0390,10405.065,PLDO0390Z,dcp Nowogrodziec,51.2033,15.3963,11254.5087546092,PL
PLDO0400,14813.7,PLDO0400Z,dcp Żarów,50.9539,16.5045,27413.6418553251,PL
PLDO0410,13573.389,PLDO0410Z,dcp JUGOWICE,50.7583,16.4236,17333.4121142104,PL
PLDO0420,22543,PLDO0420Z,dcp Średzka Woda,51.1807,16.6058,16360.5042421296,PL
PLDO0350,17152.08,PLDO0350Z,dcp Oczyszczalnia ścieków w Miliczu,51.5274,17.2474,41440.2081839954,PL
PLDO0360,16355.957,PLDO0360Z,dcp Oczyszczalni ścieków w Chociwelu,50.8105,17.0811,10091.3033664655,PL
PLDO0370,11857.424,PLDO0370Z,dcp Oczyszczalnia ścieków w Lwówku Śląskim,51.1184,15.5878,12882.719760282,PL
PLDO0380,14404.236,PLDO0380Z,dcp Oczyszczalnia ścieków Orzeł,50.8293,15.7805,10804.6630540639,PL
PLDO0310,5880.859,PLDO0310Z,dcp Wolbromek,50.9289,16.1281,7063.80582629889,PL
PLDO0320,17685.04,PLDO0320Z,dcp Oczyszczalnia ściekow w Goliszowie dla aglomeracji Chojnów,51.2749,15.963,23503.3680067817,PL
PLDO0330,16931.456,PLDO0330Z,dcp Oczyszczalnia Ścieków w Bogatyni,50.918,14.9466,9961.43623808119,PL
PLDO0340,5755.52,PLDO0340Z,dcp Polanica-Zdrój,50.4186,16.5361,16705.648103822,PL
NO3419.0015.01,4158,NO3419.0015.01,Våler renseanlegg,60.649845,11.843511,6545.33856454492,NO
NO3420.0049.01,33000,NO3420.0049.01,Elverum renseanlegg,60.85559,11.570579,23786.3343002582,NO
NO3421.0045.01,32000,NO3421.0045.01,"Innbygda renseanlegg, Mosanden",61.296397,12.275354,6969.99733103765,NO
NO3422.0018.01,8000,NO3422.0018.01,Rena rensepark,61.176198,11.366273,3942.88056037063,NO
NO3416.0016.01,3960,NO3416.0016.01,Skotterud renseanlegg,59.981168,12.127014,4523.53780006128,NO
NO3416.0017.01,2548,NO3416.0017.01,Magnor renseanlegg,59.942808,12.202489,1413.90271689184,NO
NO3417.0023.01,2280,NO3417.0023.01,Kirkenær renseanlegg,60.450221,12.047226,275.395503558218,NO
NO3418.0037.01,8036,NO3418.0037.01,Flisa renseanlegg,60.595467,12.02048,7482.64434345718,NO
NO3411.0233.01,2910,NO3411.0233.01,Nes renseanlegg,60.759952,10.929448,127.250216038898,NO
NO3413.0082.01,198000,NO3413.0082.01,HIAS renseanlegg,60.766584,11.078273,36482.4001329546,NO
NO3414.0018.01,2790,NO3414.0018.01,Sand renseanlegg,60.388287,11.54542,3422.8335493356,NO
NO3415.0029.01,5850,NO3415.0029.01,Skarnes renseanlegg,60.247614,11.675212,10161.1467596539,NO
NO3401.0051.02,14700,NO3401.0051.02,Kongsvinger renseanlegg,60.203103,11.970759,20435.2649921086,NO
NO3405.0033.01,67900,NO3405.0033.01,Lillehammer renseanlegg,61.095044,10.464123,20992.1826190036,NO
NO3407.0119.02,43650,NO3407.0119.02,Rambekk renseanlegg,60.776668,10.705791,5541.87432072428,NO
NO3411.0086.01,28215,NO3411.0086.01,Moelv renseanlegg,60.921407,10.692586,5454.13912456855,NO
NO3049.0091.01,44053.72363573,NO3049.0091.01,Linnes avløpsanlegg,59.749794,10.288348,24776.4169515371,NO
NO3053.0011.01,9603,NO3053.0011.01,Jevnaker renseanlegg,60.232646,10.369646,140398.509463236,NO
NO3054.0009.01,5820,NO3054.0009.01,Harestua renseanlegg,60.204166,10.711604,1880.24416607618,NO
NO3054.0010.01,3783,NO3054.0010.01,Volla renseanlegg,60.306614,10.594318,3994.11380710197,NO
NO3046.0009.01,4074,NO3046.0009.01,Noresund avløpsanlegg,60.180924,9.621426,2433.90897426987,NO
NO3047.0023.01,5279.55,NO3047.0023.01,Bårud avløpsanlegg,59.898066,9.920426,10042.7720583538,NO
NO3047.0026.01,7880,NO3047.0026.01,Elvika avløpsanlegg,59.929763,9.959879,88640.943464611,NO
NO3048.0031.01,15405.2946232,NO3048.0031.01,Hokksund avløpsanlegg,59.769303,9.915514,82249.8313988269,NO
NO3044.0008.01,29400,NO3044.0008.01,Geilo avløpsanlegg,60.541302,8.246325,2851.47451429814,NO
NO3044.0011.01,2415,NO3044.0011.01,Ustaoset avløpsanlegg,60.49749,8.042535,107.922283064574,NO
NO3045.0008.01,2744,NO3045.0008.01,Eggedal avløpsanlegg,60.238945,9.354078,715.294501116499,NO
NO3045.0014.01,5415,NO3045.0014.01,Haglebu avløpsanlegg,60.338527,9.188383,276.404931692407,NO
NO3041.0011.01,5940,NO3041.0011.01,Gol avløpsanlegg,60.700874,8.995235,5716.35961318668,NO
NO3041.0018.01,4896,NO3041.0018.01,Golsfjellet avløpsanlegg,60.836896,8.989522,1298.00625432306,NO
NO3042.0008.01,6860,NO3042.0008.01,Trøim avløpsanlegg,60.859978,8.569357,3118.96066289395,NO
NO3043.0040.01,3570,NO3043.0040.01,Sundre avløpsanlegg,60.638066,8.591571,9077.27591009438,NO
NO3035.0025.01,32200,NO3035.0025.01,Bårlidalen renseanlegg,60.319453,11.263485,125024.548052746,NO
NO3037.0003.01,2254,NO3037.0003.01,Hurdal Sentrum renseanlegg,60.426938,11.069704,1962.64668322355,NO
NO3038.0006.01,4900,NO3038.0006.01,Hole avløpsanlegg,60.107842,10.225422,1820.47597029991,NO
NO3040.0012.01,2646,NO3040.0012.01,Nesbyen avløpsanlegg,60.572323,9.113439,2874.01720632869,NO
NO3031.0037.01,6900,NO3031.0037.01,Åneby renseanlegg,60.085202,10.88163,7630.77453893051,NO
NO3033.0031.01,11040,NO3033.0031.01,Kløfta renseanlegg,60.06213,11.107182,28478.5669708657,NO
NO3033.0071.01,54530,NO3033.0071.01,Gardermoen sentralrenseanlegg,60.169835,11.112275,593.433132851031,NO
NO3034.0026.01,27600,NO3034.0026.01,Fjellfoten renseanlegg,60.104756,11.452266,16316.228311955,NO
NO3030.0078.01,193959.067530956,NO3030.0078.01,NRA (Nedre Romerike avløpsanlegg),59.953985,11.023892,73925.2495668363,NO
NO3030.0241.01,59220,NO3030.0241.01,Midtre Romerike avløpsselskap IKS (MIRA),59.979434,11.220344,28044.3517651977,NO
NO3031.0035.01,9200,NO3031.0035.01,Rotnes renseanlegg,60.052065,10.885697,4177.90174049139,NO
NO3031.0036.01,13685.68961708,NO3031.0036.01,Slattum renseanlegg,60.00287,10.933059,272282.041216942,NO
NO3026.0021.02,9500,NO3026.0021.02,Bjørkelangen sentralrenseanlegg,59.862234,11.550922,7185.44483616296,NO
NO3026.0022.01,3760,NO3026.0022.01,Løken renseanlegg,59.794593,11.485102,2888.01614600793,NO
NO3028.0019.01,3680,NO3028.0019.01,Flateby renseanlegg,59.834048,11.153389,62025.5729892431,NO
NO3028.0038.01,3496,NO3028.0038.01,Kirkebygda sentralrenseanlegg,59.75457,11.148946,889.414883024991,NO
NO3022.0019.01,28336,NO3022.0019.01,Frogn renseanlegg,59.642511,10.644289,12691.299105525,NO
NO3023.0015.01,5070.54800343,NO3023.0015.01,Buhrestua renseanlegg,59.86192,10.671713,324939.661785478,NO
NO3025.0059.01,512909.538336962,NO3025.0059.01,Sentralrenseanlegg Vest (VEAS),59.793297,10.499285,51495.1137150927,NO
NO3025.0179.01,3787.0799362,NO3025.0179.01,Lahell avløpsanlegg,59.725805,10.319258,83007.9267497333,NO
NO3014.0118.01,9405,NO3014.0118.01,Mysen avløpsanlegg,59.556475,11.316196,11378.5419990402,NO
NO3016.0021.01,34650,NO3016.0021.01,Bodal avløpsanlegg,59.416598,11.338972,5796.29681573668,NO
NO3019.0024.01,23000,NO3019.0024.01,Søndre Follo renseanlegg,59.588655,10.678925,4276.13102915138,NO
NO3021.0016.01,51520,NO3021.0016.01,Nordre Follo renseanlegg,59.753439,10.783307,28179.7551052037,NO
NO3007.0057.01,26190,NO3007.0057.01,Monserud avløpsanlegg,60.144387,10.233589,23634.1835740774,NO
NO3013.0012.01,1980,NO3013.0012.01,Bommen avløpsanlegg,59.475283,11.652096,4920.28121210937,NO
NO3014.0031.04,40887,NO3014.0031.04,AHSA avløpsanlegg,59.561812,11.150328,28089.486070568,NO
NO3014.0114.01,2970,NO3014.0114.01,Skjønhaug avløpsanlegg,59.647043,11.29383,1344.10649887566,NO
NO3005.0187.01,116968.59869089,NO3005.0187.01,Solumstrand avløpsanlegg,59.711268,10.268753,2135.98037564754,NO
NO3005.0201.01,20973.34245051,NO3005.0201.01,Muusøya avløpsanlegg,59.750705,10.153538,22879.1176251471,NO
NO3005.0449.01,21911.96066347,NO3005.0449.01,Mjøndalen avløpsanlegg,59.750173,10.028285,18623.0018450022,NO
NO3006.0045.01,23520,NO3006.0045.01,Sellikdalen avløpsanlegg,59.649764,9.649013,23557.026750712,NO
NO3002.0052.03,25916.31278005,NO3002.0052.03,Kambo avløpsanlegg,59.474488,10.686496,35227.5546134086,NO
NO3002.0153.01,81883.68721995,NO3002.0153.01,Fuglevik avløpsanlegg,59.384088,10.661757,18724.015138038,NO
NO3003.0070.01,72499.0175598256,NO3003.0070.01,Alvim renseanlegg,59.273056,11.075773,107545.560353132,NO
NO3004.0134.01,105815.231440174,NO3004.0134.01,Øra avløpsanlegg,59.183135,10.967813,89491.7777461014,NO
NO1833.0083.01,115.17080018448,NO1833.0083.01,Ytre-Båsmo avløpsrenseanlegg,66.329422,14.101746,2358.03712463379,NO
NO1833.0084.01,4652.53470597198,NO1833.0084.01,Moskjæran avløpsrenseanlegg,66.31369,14.126379,7190.61691850424,NO
NO1833.0085.01,12710.8345031965,NO1833.0085.01,Mjølan avløpsrenseanlegg,66.335524,14.140089,29588.7827025589,NO
NO3001.0055.01,41580,NO3001.0055.01,Remmendalen avløpsanlegg,59.120873,11.360107,23096.7360149056,NO
NO1806.0049.01,23000,NO1806.0049.01,Narvik renseanlegg,68.446948,17.447153,18800.0983593508,NO
NO1824.0043.01,7000,NO1824.0043.01,Mosjøen (Bordvedneset),65.841599,13.186709,31171.2047514326,NO
NO1824.0046.01,7000,NO1824.0046.01,Kulstad renseanlegg,65.861713,13.191428,4184.94852059614,NO
NO1804.0145.01,18341.9071337193,NO1804.0145.01,Kvalvikodden renseanlegg,67.302133,14.386927,25523.8166484809,NO
NO1804.0147.01,3503.40170322177,NO1804.0147.01,Jensvoll renseanlegg,67.272859,14.463593,332.226633787155,NO
NO1804.0151.01,5290.06218967737,NO1804.0151.01,Skansenodden renseanlegg,67.268748,14.419041,3152.62288825912,NO
NO1804.0160.01,572.74295362767,NO1804.0160.01,Bodøsjøen II,67.269737,14.450258,215.566755279899,NO
NO1804.0085.01,513.23719217463,NO1804.0085.01,Stokkvika renseanlegg,67.274249,14.491259,458.192207336426,NO
NO1804.0086.01,1011.59794403073,NO1804.0086.01,Hunstadmoen I,67.27445,14.503619,474.094742059708,NO
NO1804.0087.01,602.49583430946,NO1804.0087.01,Hunstadmoen II,67.276065,14.515788,6462.38812807016,NO
NO1804.0088.01,8144.85109347252,NO1804.0088.01,Mørkvedodden renseanlegg,67.2786,14.564621,42110.5183744226,NO
NO1531.0025.01,5040.73948414946,NO1531.0025.01,RA1-Geilneset,62.439388,6.182691,7985.31932115555,NO
NO1531.0026.01,3014.050413192,NO1531.0026.01,RA2 Djupvika,62.44179,6.258072,470.477572202682,NO
NO1804.0080.01,600.26436826839,NO1804.0080.01,Alstad renseanlegg,67.273453,14.477961,2750.79421563819,NO
NO1804.0081.01,5702.1395874534,NO1804.0081.01,Hammervika renseanlegg,67.272768,14.351352,10740.5229711384,NO
NO1507.0214.01,72.75294103896,NO1507.0214.01,RA21 Bingsa,62.483849,6.389033,2500.01525704563,NO
NO1507.0246.01,1709.69411366936,NO1507.0246.01,RA1 Hessa,62.456571,6.124181,9849.86044800282,NO
NO1507.0248.01,129.91596610902,NO1507.0248.01,RA20 Flatholmen,62.480311,6.180889,13095.4927156419,NO
NO1507.0254.01,103.93277290214,NO1507.0254.01,RA26 Hankane,62.432972,6.321942,17307.0856298525,NO
NO1507.0151.01,20740.8241537606,NO1507.0151.01,RA2 Aspøy,62.471347,6.133317,3593.46960520744,NO
NO1507.0182.01,14550.5882016732,NO1507.0182.01,RA6 Flisnes,62.424996,6.405015,1802.31899356842,NO
NO1507.0133.01,4676.9747791039,NO1507.0133.01,RA3 Larsgården,62.478018,6.245993,6781.81269458402,NO
NO1507.0139.01,99.7754619771,NO1507.0139.01,U2 Sævollen,62.455195,6.094638,32974.4331400208,NO
NO1507.0146.01,155.8991593159,NO1507.0146.01,U12 Hessa,62.462128,6.156433,4613.61052584648,NO
NO1507.0109.01,20.78655455058,NO1507.0109.01,RA18 Borgundgavlen,62.464918,6.232164,4622.02073693275,NO
NO1507.0119.01,46.76974775746,NO1507.0119.01,U85 Bogneset,62.457246,6.258439,0,NO
NO1507.0122.01,145.5058820033,NO1507.0122.01,U88 Bogneset,62.457416,6.265755,3509.6681471169,NO
NO1506.0047.01,10151.240410496,NO1506.0047.01,RA1 Cap Clara,62.732731,7.09527,25023.6526478603,NO
NO1506.0048.01,21688.759589504,NO1506.0048.01,RA2 Nøisomhed,62.740834,7.22727,29854.9671522751,NO
NO1507.0094.01,5612.36973492468,NO1507.0094.01,RA5 Breivika,62.474069,6.340557,3447.98036241531,NO
NO1507.0103.01,155.8991593159,NO1507.0103.01,RA15 Løvika,62.4314,6.454668,30820.8944982635,NO
NO1505.0060.01,1832.91310793939,NO1505.0060.01,Løkkemyra,63.107423,7.772394,2515.18553148583,NO
NO1505.0061.01,574.312773816486,NO1505.0061.01,Jonassenskjærva,63.102166,7.735959,2005.15191543102,NO
NO1505.0063.01,12339.1710426158,NO1505.0063.01,Hagelin,63.12721,7.725946,8272.77862528712,NO
NO1505.0068.01,179.218170553212,NO1505.0068.01,Byskogen,63.106715,7.814694,2716.99796961248,NO
NO1120.0025.01,31240,NO1120.0025.01,Bore avløpsrenseanlegg,58.791683,5.597974,44420.0585724774,NO
NO1127.0012.01,397500,NO1127.0012.01,Sentralrenseanlegget for Nord Jæren SNJ,59.019819,5.618506,259561.508696359,NO
NO1505.0057.01,1221.94207196605,NO1505.0057.01,Grunden,63.112115,7.744446,8207.96340656281,NO
NO1505.0058.01,2260.59283312847,NO1505.0058.01,Dale,63.122306,7.780688,6375.15409061313,NO
NO1106.0057.01,45291.15,NO1106.0057.01,Årabrot  avløpsanlegg,59.443861,5.248156,89919.2142222954,NO
NO1119.0013.02,135000,NO1119.0013.02,Grødaland renseanlegg,58.631123,5.597586,6624.19966246467,NO
NO1119.0030.01,27000,NO1119.0030.01,Nærbø avløpsrenseanlegg,58.663571,5.563112,11870.625357097,NO
NO1120.0023.01,44750,NO1120.0023.01,Vik renseanlegg,58.712535,5.541421,5124.86738149077,NO
NL32002,308593,NLDP32002,DISCHARGE POINT  UWWTP TILBURG-NOORD,51.60306666,5.06965,3547.41202057898,NL
NL33001,36164,NLDP33001,DISCHARGE POINT  UWWTP FOXHOL,53.17325,6.71226666,5350.88723812439,NL
NO0301.0979.01,325295.156511572,NO0301.0979.01,Bekkelaget renseanlegg med tilførselstuneller og overløp,59.882995,10.767014,24658.9358380437,NO
NO1101.0039.01,44500,NO1101.0039.01,Hestnes renseanlegg,58.419448,6.006271,24806.0732789763,NO
NL30023,28678,NLDP30023,DISCHARGE POINT  UWWTP PANHEEL,51.171,5.8802,79726.2311303723,NL
NL30024,137290,NLDP30024,DISCHARGE POINT  UWWTP ROERMOND,51.21411666,5.99136666,132428.471572469,NL
NL30025,32311,NLDP30025,DISCHARGE POINT  UWWTP GENNEP,51.70585,5.96638333,140547.490260957,NL
NL31005,282338.94,NLDP31005,DISCHARGE POINT  UWWTP AMSTERDAM-WESTPOORT,52.41788333,4.80663333,73061.9957612157,NL
NO4614.0079.01,220.25915493126,NO4614.0079.01,"Sætravik, Utslepp 5.01-5.03 renseanlegg",59.7664,5.396311,15049.3586600721,NO
NO4614.0102.01,3586.28479860245,NO4614.0102.01,Skjersholmane,59.748505,5.45974,23559.7844466915,NO
NO4614.0066.01,2111.9232702855,NO4614.0066.01,Sæverhagen,59.800964,5.532054,30466.928490399,NO
NO4614.0067.01,996.1902218352,NO4614.0067.01,"Økland, Knosterneset",59.811873,5.533329,5233.51633911207,NO
NO4614.0068.01,5953.2327656711,NO4614.0068.01,Djupavik,59.778154,5.511732,5298.04943647888,NO
NO4614.0058.01,132.8253629199,NO4614.0058.01,"Aker Stord I, Eldøyane",59.756033,5.49042,727.099869339028,NO
NO4614.0061.01,2729.5612078182,NO4614.0061.01,"Bjelland, utslipp 5.01 -5.03",59.771624,5.505445,366.240261554718,NO
NO4614.0063.01,438.32369761005,NO4614.0063.01,"Leirvik Nord , utslipp 10.2-10.06",59.788818,5.526826,937.554309166968,NO
NO4602.0052.01,294.25055107,NO4602.0052.01,Brandsøysundet (RD 14),61.602886,5.140623,17108.3512649536,NO
NO4602.0109.01,1183.20628215,NO4602.0109.01,Silanlegg Sentrum/Stranda (RD3),61.601069,5.022833,4940.51718139648,NO
NO4614.0026.01,185.95550807505,NO4614.0026.01,"Aker Stord II, Kjøtteinståa",59.763147,5.503695,1185.13599240035,NO
NO4602.0046.01,189.66752388,NO4602.0046.01,Industrivegen (RD 7),61.590463,4.9995,2500.92759132385,NO
NO4602.0047.01,382.88023512,NO4602.0047.01,Gunnhildvågen (RD 8),61.585427,5.000018,1252.89449310303,NO
NO4602.0048.01,403.26506245,NO4602.0048.01,FLO26 Brendøyvn/Kystmuseet,61.588847,5.042718,0,NO
NO4602.0050.01,354.51873622,NO4602.0050.01,FLO28 Gaddevågen (29-30-31),61.593096,5.052892,0,NO
NO4602.0039.01,169.28269655,NO4602.0039.01,Nordnes,61.600061,5.008942,2953.74031066895,NO
NO4602.0040.01,561.91219691,NO4602.0040.01,Breivika,61.595298,5.007121,1775.08170700073,NO
NO4602.0041.01,671.81300514,NO4602.0041.01,Havreneset Sør (RD 6),61.59349,5.000317,2301.7802734375,NO
NO4602.0031.01,469.7373255,NO4602.0031.01,FLO32 Krokane Vest-Nygård,61.592617,5.058367,321.344085693359,NO
NO4602.0024.01,771.07825129,NO4602.0024.01,Storåsen Sør (RD 9),61.585604,5.032872,0,NO
NO4602.0028.01,416.55951506,NO4602.0028.01,Brandsøyåsen Nord-Vest,61.603047,5.073477,994.588623046875,NO
NO4602.0029.01,818.05198384,NO4602.0029.01,Solheimsfeltet (RD 11),61.595472,5.082946,3415.89295387268,NO
NO4601.0407.01,27071.3328466139,NO4601.0407.01,Ytre Sandviken RA,60.422146,5.299453,634.918717384338,NO
NO4601.0853.01,7.15912402213,NO4601.0853.01,Brøstaneset renseanlegg,60.392923,5.22329,781.523065567017,NO
NO4601.0403.01,136.91824803813,NO4601.0403.01,Skarehaugane,60.331563,5.201045,1429.20704650879,NO
NO4601.0404.01,115.44087597174,NO4601.0404.01,Skareveien,60.330194,5.210171,11507.8837558329,NO
NO4601.0341.01,1280.58832112773,NO4601.0341.01,Drotningsvik,60.369628,5.17473,10.1266732525282,NO
NO4601.0342.01,167.34452557814,NO4601.0342.01,Kistebakkane,60.490926,5.267925,563.064366340637,NO
NO4601.0344.01,71871.3416059329,NO4601.0344.01,Holen renseanlegg,60.394009,5.273588,25343.0084730387,NO
NO4601.0400.01,170.029197160765,NO4601.0400.01,Hordvikneset,60.524322,5.298728,240.202909469604,NO
NO4601.0336.01,502.92846716286,NO4601.0336.01,Eikeviken,60.428613,5.289625,3932.08124685287,NO
NO4601.0337.01,51263.8029197403,NO4601.0337.01,Knappen renseanlegg,60.329746,5.252756,122236.046260522,NO
NO4601.0338.01,24982.6583942786,NO4601.0338.01,Kvernevik,60.46425,5.278272,21789.7383976579,NO
NO4601.0330.01,92954.0671533309,NO4601.0330.01,Flesland renseanlegg,60.2834,5.208353,16027.8897352191,NO
NO4601.0333.01,752.164876637205,NO4601.0333.01,Hagardsviken-Garnes,60.439257,5.483025,14713.8920643767,NO
NO4601.0334.01,17118.2351233628,NO4601.0334.01,Garnes,60.451721,5.466702,362.443614184856,NO
NO4601.0335.01,1567.84817511711,NO4601.0335.01,Helleneset,60.435189,5.281454,2439.35597538948,NO
NO4601.0324.01,2817.11532857369,NO4601.0324.01,Fagerdalen,60.376419,5.192088,2712.11738109589,NO
NO4601.0325.01,5056.13138686024,NO4601.0325.01,Godvik,60.37971,5.19715,0,NO
NO4601.0328.01,687.275912367885,NO4601.0328.01,Håkonshella,60.342856,5.181496,89.2467722892761,NO
NO4601.0319.01,76.96058398116,NO4601.0319.01,Alvøen,60.354262,5.187418,4977.59820942953,NO
NO4601.0321.01,1683.28905108885,NO4601.0321.01,Kjøkkelvik,60.389994,5.226826,32.407747726941,NO
NO4601.0323.01,848.356204352335,NO4601.0323.01,Steinestø,60.523013,5.317004,30689.1077349922,NO
NO4222.0014.01,9100,NO4222.0014.01,Hartevatn renseanlegg,59.52558,7.367591,236.900433525443,NO
NO4228.0004.01,14250,NO4228.0004.01,Handeland renseanlegg - Sirdal,58.869507,6.818985,2212.65915993103,NO
NO4216.0018.01,4000,NO4216.0018.01,Birkeland renseanlegg,58.331664,8.221323,12618.8477539951,NO
NO4219.0019.01,3888,NO4219.0019.01,Fennefoss renseanlegg,58.577733,7.780441,2321.43434871454,NO
NO4220.0007.01,705,NO4220.0007.01,Byglandsfjord renseanlegg,58.66495,7.806465,9056.22579734056,NO
NO4221.0012.01,1050,NO4221.0012.01,Brokke vatn og avlaupsanlegg/avlaupsverk AS,59.096289,7.453443,121.658818870317,NO
NO4206.0050.01,13120,NO4206.0050.01,Huseby renseanlegg,58.07288,6.776189,10847.5868210001,NO
NO4207.0047.01,10074,NO4207.0047.01,Skådeviga renseanlegg,58.280943,6.649245,13965.1464858592,NO
NO4214.0011.01,3000,NO4214.0011.01,Neset renseanlegg,58.511752,8.648544,18778.288945467,NO
NO4215.0030.01,12936,NO4215.0030.01,Fossbekk renseanlegg,58.237866,8.369833,7416.74807373341,NO
NO4204.0222.01,74133.723801159,NO4204.0222.01,Odderøya renseanlegg,58.133524,7.999333,59016.8874918462,NO
NO4204.0338.01,23876.276198841,NO4204.0338.01,Bredalsholmen renseanlegg,58.109826,7.992258,35937.5831950754,NO
NO4204.0671.01,12600,NO4204.0671.01,Høllen renseanlegg,58.080934,7.804675,16312.3127857069,NO
NO4205.0084.01,15680,NO4205.0084.01,Grønvika renseanlegg - Mandal,58.019907,7.464128,28990.2179382417,NO
NO3825.0010.01,11293.92,NO3825.0010.01,Rauland avløpsrenseanlegg,59.699079,8.036177,143.921277140267,NO
NO3825.0012.01,8217,NO3825.0012.01,Vågslid reinseanlegg,59.768559,7.36916,59.6314471065998,NO
NO4202.0046.01,30000,NO4202.0046.01,Groos renseanlegg,58.329875,8.582306,5038.07747984305,NO
NO4203.0106.01,72890,NO4203.0106.01,Saulekilen renseanlegg,58.424381,8.742649,57155.883319064,NO
NO3819.0015.02,9603,NO3819.0015.02,Kovstulheia Russmarken avløpsrenseanlegg,59.774383,8.813024,70.5829115957022,NO
NO3820.0010.01,1386,NO3820.0010.01,Seljord avløpsrenseanlegg,59.478626,8.638288,1672.16752621531,NO
NO3821.0008.01,1188,NO3821.0008.01,Vrådal renseanlegg,59.325872,8.485557,1086.86897135503,NO
NO3823.0005.01,5544,NO3823.0005.01,Fyresdal avløpsrenseanlegg,59.183297,8.0839,157.053140580654,NO
NO3814.0125.01,11880,NO3814.0125.01,Kragerø renseanlegg,58.873494,9.414661,18465.5835259445,NO
NO3816.0018.01,3069,NO3816.0018.01,Søvitt avløpsrenseanlegg,59.282006,9.285091,10531.8519824685,NO
NO3817.0015.01,12348,NO3817.0015.01,Bø avløpsrenseanlegg,59.412752,9.109116,7148.17941309093,NO
NO3818.0025.01,5335,NO3818.0025.01,Rjukan avløpsrenseanlegg,59.885645,8.689262,3182.23862064886,NO
NO3806.0077.01,19544.429657531,NO3806.0077.01,Heistad avløpsrenseanlegg,59.080345,9.696992,2125.97108119354,NO
NO3807.0106.01,22806.5021721352,NO3807.0106.01,Elstrøm renseanlegg,59.199681,9.588107,35080.4820818162,NO
NO3808.0027.01,11368,NO3808.0027.01,Ramsflog renseanlegg,59.560628,9.253474,13420.6245033348,NO
NO3813.0044.01,19516.424227193,NO3813.0044.01,Salen avløpsrenseanlegg,59.018614,9.737001,29993.5513792522,NO
NO3804.0173.01,2482.5,NO3804.0173.01,Andebu sentrum renseanlegg,59.302325,10.196855,2777.66872219741,NO
NO3804.0206.01,18867,NO3804.0206.01,Vårnes avløpsrenseanlegg,59.205766,10.331927,34227.5094947258,NO
NO3805.0040.01,64545,NO3805.0040.01,Lillevik renseanlegg,59.01664,10.025876,28169.3648821372,NO
NO3806.0074.01,58813.6439431408,NO3806.0074.01,Knarrdalstrand renseanlegg,59.136996,9.626492,44216.0347419279,NO
NO3802.0025.01,13405.5,NO3802.0025.01,Holmestrand renseanlegg,59.485191,10.325876,5715.94810628891,NO
NO3802.0083.01,8639.1,NO3802.0083.01,Lersbryggen renseanlegg,59.568961,10.254455,24506.4884754648,NO
NO3803.0110.01,134055,NO3803.0110.01,Tønsberg renseanlegg,59.261987,10.498259,36539.1534559941,NO
NO3804.0070.01,84405,NO3804.0070.01,Sandefjord renseanlegg,59.086079,10.214619,40118.3315934697,NO
NO3452.0005.01,2037,NO3452.0005.01,Røn renseanlegg,61.031895,9.053596,2725.18976641621,NO
NO3452.0006.01,2522,NO3452.0006.01,Vaset renseanlegg,61.001078,9.017953,486.266066901386,NO
NO3453.0007.01,8245,NO3453.0007.01,Beito renseanlegg,61.231752,8.880822,300.96172041446,NO
NO3801.0045.01,29790,NO3801.0045.01,Falkensten renseanlegg,59.438877,10.448394,30275.5208146861,NO
NO3447.0008.01,6014,NO3447.0008.01,Hov renseanlegg,60.703797,10.336768,528.890756726265,NO
NO3448.0009.01,6499,NO3448.0009.01,Dokka renseanlegg,60.826596,10.086289,7525.46754711773,NO
NO3451.0008.01,5820,NO3451.0008.01,Aurdal renseanlegg,60.914451,9.397348,1769.44979585335,NO
NO3451.0009.01,7275,NO3451.0009.01,Fagernes-Leira renseanlegg,60.957358,9.308264,7653.79320105771,NO
NO3442.0015.01,6014,NO3442.0015.01,Kapp renseanlegg,60.71684,10.859787,877.412914024666,NO
NO3442.0017.01,12416,NO3442.0017.01,Skreia renseanlegg,60.659739,10.968609,4457.47300686687,NO
NO3443.0016.01,14065,NO3443.0016.01,Breiskallen renseanlegg,60.749731,10.619956,13053.1812506227,NO
NO3446.0017.01,13580,NO3446.0017.01,Brandbu renseanlegg,60.423266,10.499868,8241.05334205553,NO
NO3439.0010.01,8245,NO3439.0010.01,Fåvang renseanlegg,61.45231,10.191905,1551.4869733993,NO
NO3439.0011.01,8730,NO3439.0011.01,Frya avløpsanlegg,61.541856,10.057177,4062.65640221536,NO
NO3440.0009.01,6208,NO3440.0009.01,Tretten renseanlegg,61.308201,10.300054,1911.35500650853,NO
NO3442.0013.01,4025.5,NO3442.0013.01,Lena renseanlegg,60.67025,10.816444,6025.61305848695,NO
NO3435.0004.01,3298,NO3435.0004.01,Vågåmo renseanlegg,61.871193,9.110726,3589.2480868604,NO
NO3436.0008.01,5141,NO3436.0008.01,Vinstra renseanlegg,61.587045,9.76443,7929.33600867447,NO
NO3437.0016.01,13580,NO3437.0016.01,Otta renseanlegg,61.747709,9.554371,7660.15439583641,NO
NO3439.0009.01,3104,NO3439.0009.01,Ringebu kloakkrenseanlegg,61.525781,10.137012,1502.3882757239,NO
NO3431.0011.01,2910,NO3431.0011.01,Dovre renseanlegg,61.984882,9.243917,1264.49815261364,NO
NO3432.0007.01,2910,NO3432.0007.01,Lesja renseanlegg (Hosetmoen),62.129383,8.660626,111.93595123291,NO
NO3432.0008.01,2910,NO3432.0008.01,Bjorli  renseanlegg,62.230831,8.246575,5551.31449576467,NO
NO3434.0005.01,2279.5,NO3434.0005.01,Fossbergom renseanlegg,61.842809,8.57002,11278.7270600889,NO
NO3426.0013.01,2162,NO3426.0013.01,Tolga renseanlegg,62.407004,10.995054,4210.50102683902,NO
NO3427.0041.01,8700,NO3427.0041.01,Tynset renseanlegg,62.278974,10.79325,2679.18240019493,NO
NO3428.0014.01,9500,NO3428.0014.01,Alvdal renseanlegg,62.10643,10.629798,6639.89587197499,NO
NO3431.0009.01,3589,NO3431.0009.01,Dombås renseanlegg,62.082823,9.101847,3867.76691324636,NO
NL12022,141443,NLDP12022,DISCHARGE POINT  UWWTP BEVERWIJK,52.47233333,4.6659,975566.603081011,NL
NL12023,38182,NLDP12023,DISCHARGE POINT  UWWTP DEN HELDER,52.92843333,4.78816666,44002.563675073,NL
NL12024,33915,NLDP12024,DISCHARGE POINT  UWWTP URSEM,52.633,4.88276666,687.498505204916,NL
NL12025,7386,NLDP12025,DISCHARGE POINT  UWWTP WIERINGERMEER,52.83465,5.02298333,127.722765088081,NL
NL12016,66200,NLDP12016,DISCHARGE POINT  UWWTP KATWOUDE,52.48088333,5.0295,3430.4848138243,NL
NL12018,7056,NLDP12018,DISCHARGE POINT  UWWTP WIERINGEN,52.94351666,5.04013333,8471.0991491694,NL
NL12019,33558,NLDP12019,DISCHARGE POINT  UWWTP DE STOLPEN,52.80973333,4.73583333,27384.5798503486,NL
NL12021,206383,NLDP12021,DISCHARGE POINT  UWWTP WERVERSHOOF,52.73951666,5.1474,227748.022926977,NL
NL12010,108969,NLDP12010,DISCHARGE POINT  UWWTP ZAANDAM-OOST,52.41601666,4.86246666,672075.985281478,NL
NL12012,24216,NLDP12012,DISCHARGE POINT  UWWTP EVERSTEKOOG,53.07611666,4.7802,13264.4542280384,NL
NL12013,201907,NLDP12013,DISCHARGE POINT  UWWTP GEESTMERAMBACHT,52.69196666,4.72851666,209884.146631722,NL
NL12014,90998,NLDP12014,DISCHARGE POINT  UWWTP BEEMSTER (ZO-BEEMSTER),52.51463333,4.91285,71000.6992215244,NL
NL11013,92453,NLDP11013,DISCHARGE POINT  UWWTP HORSTERMEER,52.2487,5.04675,32298.343594715,NL
NL11014,803580.06,NLDP11014,DISCHARGE POINT  UWWTP AMSTERDAM-WEST,52.39853333,4.75715,54447.9596062899,NL
NL12001,32592,NLDP12001,DISCHARGE POINT  UWWTP HEILOO,52.5885,4.75563333,14842.7534718513,NL
NL12006,54694,NLDP12006,DISCHARGE POINT  UWWTP ALKMAAR,52.64513333,4.74401666,14746.9189970493,NL
NL11006,31943,NLDP11006,DISCHARGE POINT  UWWTP UITHOORN,52.23455,4.83605,1355.65624898672,NL
NL11008,31403,NLDP11008,DISCHARGE POINT  UWWTP BLARICUM GOOIERGRACHT,52.26435,5.25156666,7003.66082188487,NL
NL11010,30136,NLDP11010,DISCHARGE POINT  UWWTP WEESP,52.32536666,5.01766666,52347.5395748764,NL
NL11012,47307,NLDP11012,DISCHARGE POINT  UWWTP HUIZEN,52.31188333,5.24171666,289075.120827034,NL
NL10037,7867,NLDP10037,DISCHARGE POINT  UWWTP LOENEN AD VECHT,52.22471666,5.00683333,77236.0144449994,NL
NL10038,22863,NLDP10038,DISCHARGE POINT  UWWTP LOPIK,51.96306666,4.95398333,1526.12938599288,NL
NL11004,51916,NLDP11004,DISCHARGE POINT  UWWTP HILVERSUM-OOST,52.25271666,5.24366666,60803.7660378739,NL
NL11005,89228,NLDP11005,DISCHARGE POINT  UWWTP AMSTELVEEN,52.31156666,4.90505,63066.1319432259,NL
NL10032,20589,NLDP10032,DISCHARGE POINT  UWWTP OUDEWATER,52.0201,4.85458333,9489.24785476923,NL
NL10034,38679,NLDP10034,DISCHARGE POINT  UWWTP DE RONDE VENEN (MIJDRECHT),52.24295,4.85571666,51114.7044729479,NL
NL10035,41862,NLDP10035,DISCHARGE POINT  UWWTP RHENEN,51.96993333,5.53418333,641.238849043846,NL
NL10036,46303,NLDP10036,DISCHARGE POINT  UWWTP HOUTEN,52.02233333,5.13443333,72466.2356182523,NL
NL10028,101792,NLDP10028,DISCHARGE POINT  UWWTP NIEUWEGEIN,51.99785,5.07375,4162.16513824463,NL
NL10029,27127,NLDP10029,DISCHARGE POINT  UWWTP WIJK BIJ DUURSTEDE,51.97541666,5.29201666,8888.6837696135,NL
NL10030,16174,NLDP10030,DISCHARGE POINT  UWWTP MAARSSEN,52.14925,5.03361666,7435.99084363878,NL
NL10031,21293,NLDP10031,DISCHARGE POINT  UWWTP BREUKELEN,52.16531666,4.9955,41.1218566292521,NL
NL10021,82356,NLDP10021,DISCHARGE POINT  UWWTP VEENENDAAL,52.04091666,5.5265,64289.9598097205,NL
NL10024,15922,NLDP10024,DISCHARGE POINT  UWWTP MONTFOORT,52.04161,4.93908,35618.9614083916,NL
NL10025,29591,NLDP10025,DISCHARGE POINT  UWWTP BUNNIK,52.06336666,5.21366666,12788.6316575557,NL
NL10027,195221,NLDP10027,DISCHARGE POINT  UWWTP AMERSFOORT,52.17566666,5.34905,157741.244906822,NL
NL10010,69626,NLDP10010,DISCHARGE POINT  UWWTP SOEST,52.1938,5.30968333,32229.4285161346,NL
NL10011,49904,NLDP10011,DISCHARGE POINT  UWWTP MAARSSENBROEK,52.12608333,5.05445,169.564206791799,NL
NL10012,28352,NLDP10012,DISCHARGE POINT  UWWTP DE MEERN,52.08928333,5.00083333,28185.1721339226,NL
NL10020,27773,NLDP10020,DISCHARGE POINT  UWWTP WOUDENBERG,52.08865,5.4514,4758.56719967723,NL
NL10001,62372,NLDP10001,DISCHARGE POINT  UWWTP ZEIST,52.08665,5.21241666,41746.3542843089,NL
NL10003,59835,NLDP10003,DISCHARGE POINT  UWWTP DE BILT,52.09968333,5.16536666,17669.9583188072,NL
NL10008,31701,NLDP10008,DISCHARGE POINT  UWWTP DRIEBERGEN,52.0446,5.26013333,3921.38223898411,NL
NL10009,316933.28,NLDP10009,DISCHARGE POINT  UWWTP UTRECHT,52.10863333,5.10591666,20658.4289169312,NL
NL09040,12643,NLDP09040,DISCHARGE POINT  UWWTP HAAFTEN,51.73535,5.1169,292.543581359088,NL
NL09041,75867,NLDP09041,DISCHARGE POINT  UWWTP ZALTBOMMEL,51.81376666,5.23743333,16948.3974194452,NL
NL09042,2727,NLDP09042,DISCHARGE POINT  UWWTP MILLINGEN,51.87298333,6.03216666,31767.8361321278,NL
NL09043,6875,NLDP09043,DISCHARGE POINT  UWWTP LIENDEN,51.96716666,5.53976666,19525.7512185127,NL
NL09034,9130,NLDP09034,DISCHARGE POINT  UWWTP ECK EN WIEL,51.98331666,5.4571,9705.53686860204,NL
NL09037,18694,NLDP09037,DISCHARGE POINT  UWWTP GORINCHEM OOST,51.8414,4.98955,6652.01968383789,NL
NL09038,24016,NLDP09038,DISCHARGE POINT  UWWTP GENDT,51.87293333,5.93748333,29586.8457059637,NL
NL09039,7182,NLDP09039,DISCHARGE POINT  UWWTP DREUMEL,51.82763333,5.43938333,2731.30789500475,NL
NL09029,7555,NLDP09029,DISCHARGE POINT  UWWTP AALST,51.81253333,5.12788333,2688.74577276781,NL
NL09030,3276,NLDP09030,DISCHARGE POINT  UWWTP MAASBOMMEL,51.82955,5.52138333,89263.2614177596,NL
NL09031,6512,NLDP09031,DISCHARGE POINT  UWWTP BEESD,51.8963,5.16956666,2607.99774167873,NL
NL09032,7202,NLDP09032,DISCHARGE POINT  UWWTP ZETTEN,51.93631666,5.71293333,1084.10989355296,NL
NL09024,328897,NLDP09024,DISCHARGE POINT  UWWTP NIJMEGEN,51.87368333,5.80046666,33218.6818936691,NL
NL09025,89282,NLDP09025,DISCHARGE POINT  UWWTP TIEL,51.91915,5.43448333,33220.3728941903,NL
NL09026,33364,NLDP09026,DISCHARGE POINT  UWWTP DODEWAARD,51.92571666,5.6329,48928.5874610394,NL
NL09027,28546,NLDP09027,DISCHARGE POINT  UWWTP DRUTEN,51.89883333,5.59206666,3371.81800906733,NL
NL09016,143341,NLDP09016,DISCHARGE POINT  UWWTP ARNHEM,51.96795,5.85701666,130589.374161731,NL
NL09017,6952,NLDP09017,DISCHARGE POINT  UWWTP BERGHAREN,51.8448,5.64261666,186997.867856756,NL
NL09019,39658,NLDP09019,DISCHARGE POINT  UWWTP CULEMBORG,51.9623,5.21805,861.388075366616,NL
NL09020,7308,NLDP09020,DISCHARGE POINT  UWWTP OVERASSELT,51.75598333,5.80135,106394.721361404,NL
NL09010,24859,NLDP09010,DISCHARGE POINT  UWWTP GROESBEEK,51.75876666,5.95415,4168.53899532557,NL
NL09012,31846,NLDP09012,DISCHARGE POINT  UWWTP GELDERMALSEN,51.88728333,5.27681666,1631.53302389383,NL
NL09013,4548,NLDP09013,DISCHARGE POINT  UWWTP ASPEREN,51.8834,5.11125,216.574891865253,NL
NL09015,7543,NLDP09015,DISCHARGE POINT  UWWTP VALBURG,51.91003333,5.7825,11587.0035125911,NL
NL08023,21002,NLDP08023,DISCHARGE POINT  UWWTP BRUMMEN,52.09133333,6.18683333,5130.59163648635,NL
NL08024,57437,NLDP08024,DISCHARGE POINT  UWWTP RENKUM,51.96535,5.72425,159623.958649396,NL
NL08025,27502,NLDP08025,DISCHARGE POINT  UWWTP TERWOLDE,52.26248333,6.12453333,68818.2921257354,NL
NL08026,37058,NLDP08026,DISCHARGE POINT  UWWTP HATTEM,52.48953333,6.06288333,332927.079150698,NL
NL08017,25595,NLDP08017,DISCHARGE POINT  UWWTP EPE,52.34323333,5.99913333,5054.43756014109,NL
NL08019,13911,NLDP08019,DISCHARGE POINT  UWWTP BENNEKOM,51.98652,5.61425,24831.7165393829,NL
NL08021,174421,NLDP08021,DISCHARGE POINT  UWWTP EDE,52.04006666,5.61938333,18919.7353909016,NL
NL08022,174421,NLDP08022,DISCHARGE POINT  UWWTP APELDOORN,52.27658333,6.11268333,43159.3871707246,NL
NL08005,74793,NLDP08005,DISCHARGE POINT  UWWTP NIJKERK,52.23243,5.47497,14389.981112022,NL
NL08009,85294,NLDP08009,DISCHARGE POINT  UWWTP ELBURG,52.4593,5.8313,10811.9463749528,NL
NL08011,187979,NLDP08011,DISCHARGE POINT  UWWTP HARDERWIJK,52.35828333,5.6294,9190.98054589331,NL
NL08016,15904,NLDP08016,DISCHARGE POINT  UWWTP HEERDE,52.39053,6.05474,5033.71636500955,NL
NL07020,172767,NLDP07020,DISCHARGE POINT  UWWTP NIEUWGRAAF,51.97651666,5.99848333,18690.2054927181,NL
NL07021,74590,NLDP07021,DISCHARGE POINT  UWWTP OLBURGEN,52.05575,6.13225,235864.76667506,NL
NL07022,138122,NLDP07022,DISCHARGE POINT  UWWTP ETTEN,51.93366666,6.32231666,45061.8686231766,NL
NL07023,57555,NLDP07023,DISCHARGE POINT  UWWTP HAARLO,52.11681666,6.59481666,15483.0270653982,NL
NL07016,53013,NLDP07016,DISCHARGE POINT  UWWTP WINTERSWIJK,51.98635,6.7046,9033.5074220933,NL
NL07017,13692,NLDP07017,DISCHARGE POINT  UWWTP VARSSEVELD,51.95585,6.46113333,1104.47458833456,NL
NL07018,8458,NLDP07018,DISCHARGE POINT  UWWTP DINXPERLO,51.85406666,6.47031666,13491.5556916334,DE
NL07019,164409,NLDP07019,DISCHARGE POINT  UWWTP ZUTPHEN,52.16436666,6.18708333,194337.019171934,NL
NL07002,17778,NLDP07002,DISCHARGE POINT  UWWTP AALTEN,51.91136666,6.56748333,28191.9448067266,NL
NL07006,7276,NLDP07006,DISCHARGE POINT  UWWTP WEHL,51.96828333,6.21251666,4671.78735750727,NL
NL07014,8272,NLDP07014,DISCHARGE POINT  UWWTP RUURLO,52.09018333,6.4389,2001.89408074319,NL
NL07015,22910,NLDP07015,DISCHARGE POINT  UWWTP LICHTENVOORDE,51.99885,6.56185,2254.32875006087,NL
NL06003,42390,NLDP06003,DISCHARGE POINT  UWWTP DRONTEN,52.5376,5.71441666,2022.32401657104,NL
NL06004,82204,NLDP06004,DISCHARGE POINT  UWWTP LELYSTAD,52.50263333,5.42123333,5722.94925317168,NL
NL06005,201031,NLDP06005,DISCHARGE POINT  UWWTP ALMERE,52.39928333,5.24526666,23659.1573999058,NL
NL06006,34546,NLDP06006,DISCHARGE POINT  UWWTP ZEEWOLDE,52.36188333,5.50245,0,NL
NL05020,76350.08,NLDP05020,DISCHARGE POINT  UWWTP ALMELO-SUMPEL,52.34298333,6.62298333,114138.832199494,NL
NL05022,27598,NLDP05022,DISCHARGE POINT  UWWTP RIJSSEN,52.31916666,6.53035,31145.9169849083,NL
NL05023,46738,NLDP05023,DISCHARGE POINT  UWWTP NIJVERDAL,52.36968333,6.47085,11768.0215386301,NL
NL05025,4492,NLDP05025,DISCHARGE POINT  UWWTP DEN HAM,52.46463333,6.477,123916.815468869,NL
NL05016,33731,NLDP05016,DISCHARGE POINT  UWWTP GOOR,52.24731666,6.57431666,8163.70796632022,NL
NL05017,99352,NLDP05017,DISCHARGE POINT  UWWTP HENGELO,52.28083333,6.76853333,108311.815542243,NL
NL05018,11307,NLDP05018,DISCHARGE POINT  UWWTP OOTMARSUM,52.41603333,6.93145,5144.19458193332,NL
NL05019,42946.92,NLDP05019,DISCHARGE POINT  UWWTP ALMELO-VISSEDIJK,52.37143333,6.64873333,16742.4078657925,NL
NL05011,22824,NLDP05011,DISCHARGE POINT  UWWTP DENEKAMP,52.38515,7.03578333,14809.5185173573,NL
NL05012,63387,NLDP05012,DISCHARGE POINT  UWWTP OLDENZAAL,52.30748333,6.8942,12134.9647378325,NL
NL05014,16290,NLDP05014,DISCHARGE POINT  UWWTP VROOMSHOOP,52.44641666,6.56513333,46521.9020593055,NL
NL05015,17980,NLDP05015,DISCHARGE POINT  UWWTP LOSSER,52.26185,7.01485,23445.7837881213,NL
NL05002,193344,NLDP05002,DISCHARGE POINT  UWWTP ENSCHEDE,52.23278333,6.84053333,87827.1686840113,NL
NL05003,8056,NLDP05003,DISCHARGE POINT  UWWTP GLANERBRUG,52.2184,6.97988333,23906.8095996305,NL
NL05004,14787,NLDP05004,DISCHARGE POINT  UWWTP VRIEZENVEEN,52.40808333,6.63276666,10458.4843975985,NL
NL05005,10887,NLDP05005,DISCHARGE POINT  UWWTP TUBBERGEN,52.4105,6.76643333,2985.22962799668,NL
NL04027,106635,NLDP04027,DISCHARGE POINT  UWWTP NOORDOOSTPOLDER (TOLLEBEEK),52.68145,5.69181666,19708.9146979572,NL
NL04028,41909,NLDP04028,DISCHARGE POINT  UWWTP DEDEMSVAART,52.61008333,6.474,11511.2820477262,NL
NL04030,9457.56,NLDP04030,DISCHARGE POINT  UWWTP HESSENPOORT,52.522,6.16811666,12941.2217790056,NL
NL05001,34462,NLDP05001,DISCHARGE POINT  UWWTP HAAKSBERGEN,52.17685,6.71281666,4602.73649479449,NL
NL04023,53069,NLDP04023,DISCHARGE POINT  UWWTP KAMPEN,52.57746666,5.87846666,9386.84214946441,NL
NL04024,31554,NLDP04024,DISCHARGE POINT  UWWTP HARDENBERG,52.55093333,6.59805,138806.907578791,NL
NL04025,23248,NLDP04025,DISCHARGE POINT  UWWTP DALFSEN,52.50805,6.23561666,7112.81070532277,NL
NL04026,125650.44,NLDP04026,DISCHARGE POINT  UWWTP ZWOLLE,52.50708333,6.0472,61098.791474862,NL
NL04019,84124,NLDP04019,DISCHARGE POINT  UWWTP DEVENTER,52.27021666,6.1268,12.4896726608276,NL
NL04020,46417,NLDP04020,DISCHARGE POINT  UWWTP STEENWIJK,52.78313333,6.08531666,19477.1361321658,NL
NL04021,36864,NLDP04021,DISCHARGE POINT  UWWTP RAALTE,52.3955,6.26285,9681.02863895148,NL
NL04022,27486,NLDP04022,DISCHARGE POINT  UWWTP HOLTEN,52.24285,6.41256666,3649.63900392875,NL
NL04006,21230,NLDP04006,DISCHARGE POINT  UWWTP OLST/WIJHE (OLST),52.34893333,6.10341666,4623.53281690553,NL
NL04016,21624,NLDP04016,DISCHARGE POINT  UWWTP OMMEN,52.52705,6.40596666,15278.9482122473,NL
NL04017,4904,NLDP04017,DISCHARGE POINT  UWWTP VOLLENHOVE,52.66883333,5.94748333,4024.39590907097,NL
NL04018,5426,NLDP04018,DISCHARGE POINT  UWWTP HEINO,52.44088333,6.2005,7390.86194917001,NL
NL30019,43492,NLDP30019,DISCHARGE POINT  UWWTP WIJLRE,50.82733333,5.89436666,36830.0877279006,NL
NL30020,49055,NLDP30020,DISCHARGE POINT  UWWTP VENRAIJ,51.55175,5.99035,17195.4006485995,NL
NL30021,22379,NLDP30021,DISCHARGE POINT  UWWTP STEIN,50.97416666,5.75333333,3893.7382569313,NL
NL30022,198921,NLDP30022,DISCHARGE POINT  UWWTP SUSTEREN,51.06328333,5.83483333,195756.594097516,NL
NL30015,149152,NLDP30015,DISCHARGE POINT  UWWTP HOENSBROEK,50.91363333,5.91528333,108456.74032589,NL
NL30016,24692,NLDP30016,DISCHARGE POINT  UWWTP HEUGEM (GRONSVELD),50.8158,5.71295,60438.932321975,NL
NL30017,228132,NLDP30017,DISCHARGE POINT  UWWTP VENLO,51.38323333,6.16203333,185667.091717493,NL
NL30018,7632,NLDP30018,DISCHARGE POINT  UWWTP MEIJEL,51.34931666,5.87273333,1648.11957228184,NL
NL30007,68473.2,NLDP30007,DISCHARGE POINT  UWWTP MAASTRICHT-BOSSCHERVELD,50.86636666,5.68491666,161.6061668396,NL
NL30011,6520,NLDP30011,DISCHARGE POINT  UWWTP SIMPELVELD,50.83183333,5.96895,16046.8489361703,NL
NL30013,34496,NLDP30013,DISCHARGE POINT  UWWTP RIMBURG,50.91958333,6.09366666,31190.4064515047,DE
NL30014,45660,NLDP30014,DISCHARGE POINT  UWWTP KAFFEBERG (KERKRADE),50.88611666,6.0506,38579.7043380886,NL
NL29002,203325,NLDP29002,DISCHARGE POINT  UWWTP OIJEN,51.8001,5.49303333,11221.619604677,NL
NL29003,133496,NLDP29003,DISCHARGE POINT  UWWTP LAND VAN CUIJK (HAPS),51.69388333,5.89341666,25794.1867000763,NL
NL30003,90766.8,NLDP30003,DISCHARGE POINT  UWWTP MAASTRICHT-LIMMEL,50.86695,5.69881666,106643.192808926,NL
NL30005,87673,NLDP30005,DISCHARGE POINT  UWWTP WEERT,51.2681,5.73425,5913.30727678537,NL
NL28002,47459,NLDP28002,DISCHARGE POINT  UWWTP ASTEN,51.39241666,5.74208333,29907.1393212397,NL
NL28003,297534,NLDP28003,DISCHARGE POINT  UWWTP AARLE RIXTEL,51.48536666,5.66298333,7567.58581542969,NL
NL28005,222488,NLDP28005,DISCHARGE POINT  UWWTP DINTHER,51.63646666,5.52876666,288504.270011894,NL
NL28006,42968,NLDP28006,DISCHARGE POINT  UWWTP VINKEL,51.70035,5.45085,14933.2394459881,NL
NL27008,249400,NLDP27008,DISCHARGE POINT  UWWTP 'S HERTOGENBOSCH,51.72368333,5.27865,149506.84588003,NL
NL27009,31014,NLDP27009,DISCHARGE POINT  UWWTP OISTERWIJK,51.58583333,5.22416666,9753.12708246708,NL
NL27010,79419,NLDP27010,DISCHARGE POINT  UWWTP ST OEDENRODE,51.56191666,5.44408333,2199.4492129162,NL
NL27011,44048,NLDP27011,DISCHARGE POINT  UWWTP HILVARENBEEK,51.50111666,5.17333333,12913.6574571058,NL
NL27003,572632,NLDP27003,DISCHARGE POINT  UWWTP EINDHOVEN,51.45945,5.5036,204600.34170527,NL
NL27004,52203,NLDP27004,DISCHARGE POINT  UWWTP BOXTEL,51.6073,5.33125,51974.2761422954,NL
NL27005,35792,NLDP27005,DISCHARGE POINT  UWWTP HAPERT,51.37806666,5.23971666,10528.7961468995,NL
NL27006,26489,NLDP27006,DISCHARGE POINT  UWWTP SOERENDONK,51.31305,5.59166666,16263.4408874288,NL
NL26003,10513,NLDP26003,DISCHARGE POINT  UWWTP WIJK EN AALBURG,51.75388333,5.11891666,710552.961653062,NL
NL26004,4254,NLDP26004,DISCHARGE POINT  UWWTP EETHEN,51.72468333,5.05505,23.1125888824463,NL
NL26005,35194,NLDP26005,DISCHARGE POINT  UWWTP SLEEUWIJK,51.8224,4.93016666,18883.0490704272,NL
NL26006,6757,NLDP26006,DISCHARGE POINT  UWWTP DUSSEN,51.73343333,4.92591666,27.0218629837036,NL
NL25026,20118,NLDP25026,DISCHARGE POINT  UWWTP BAARLE-NASSAU,51.44885,4.89928333,2303.87257838249,NL
NL25027,7972,NLDP25027,DISCHARGE POINT  UWWTP LAGE ZWALUWE,51.7191,4.71373333,152667.070512924,NL
NL25028,5668,NLDP25028,DISCHARGE POINT  UWWTP DINTELOORD,51.65286666,4.3598,734.034226223826,NL
NL25029,3718,NLDP25029,DISCHARGE POINT  UWWTP WILLEMSTAD,51.69076666,4.45753333,103959.902114004,NL
NL25020,48741,NLDP25020,DISCHARGE POINT  UWWTP KAATSHEUVEL,51.65636666,4.99718333,10964.6081105191,NL
NL25023,127034,NLDP25023,DISCHARGE POINT  UWWTP DONGEMOND (OOSTERHOUT),51.67458333,4.84758333,13561.8999943733,NL
NL25025,12623,NLDP25025,DISCHARGE POINT  UWWTP HALSTEREN,51.5279,4.25231666,17979.5916617811,NL
NL25014,10275,NLDP25014,DISCHARGE POINT  UWWTP WASPIK,51.70648333,4.94211666,26130.0802830718,NL
NL25016,1845,NLDP25016,DISCHARGE POINT  UWWTP NIEUW VOSSEMEER,51.57398333,4.22075,100027.992715873,NL
NL25017,241188,NLDP25017,DISCHARGE POINT  UWWTP NIEUWVEER (BREDA),51.71605,4.65498333,30543.255534865,NL
NL25019,7003,NLDP25019,DISCHARGE POINT  UWWTP CHAAM,51.51203333,4.85125,1487.88052609563,NL
NL25003,47530,NLDP25003,DISCHARGE POINT  UWWTP WAALWIJK,51.71431666,5.06596666,60526.9710713476,NL
NL25008,10071,NLDP25008,DISCHARGE POINT  UWWTP OSSENDRECHT,51.38976666,4.32066666,2469.1681086421,NL
NL25012,4265,NLDP25012,DISCHARGE POINT  UWWTP PUTTE,51.36613333,4.3893,6321.70554280281,NL
NL25013,10439,NLDP25013,DISCHARGE POINT  UWWTP RIEL,51.5346,5.02661666,26315.9992890656,NL
NL23002,50521,NLDP23002,DISCHARGE POINT  UWWTP TERNEUZEN,51.29665,3.83238333,16750.9900354175,NL
NL24001,13735,NLDP24001,DISCHARGE POINT  UWWTP HULST,51.27872,4.07454,5299.45986914262,NL
NL24002,4985,NLDP24002,DISCHARGE POINT  UWWTP KLOOSTERZANDE,51.37645,4.02491666,45265.8354311576,NL
NL25001,71939,NLDP25001,DISCHARGE POINT  UWWTP RIJEN,51.60545,4.92801666,3125.00369155407,NL
NL22007,3093,NLDP22007,DISCHARGE POINT  UWWTP GROEDE,51.39487,3.50405,3552.42531121685,NL
NL22008,13080,NLDP22008,DISCHARGE POINT  UWWTP RETRANCHEMENT,51.36351,3.37893,163138.305707624,NL
NL22012,10210,NLDP22012,DISCHARGE POINT  UWWTP OOSTBURG,51.3318,3.49878333,12921.4939760547,NL
NL22013,10758,NLDP22013,DISCHARGE POINT  UWWTP BRESKENS,51.38463333,3.59861666,53596.8804333225,NL
NL20009,30359,NLDP20009,DISCHARGE POINT  UWWTP WAARDE,51.41363333,4.06131666,69477.1880195672,NL
NL20010,8967,NLDP20010,DISCHARGE POINT  UWWTP CAMPERLAND POLDER,51.57301666,3.73345,6298.48374833912,NL
NL20011,80084,NLDP20011,DISCHARGE POINT  UWWTP WILLEM ANNAPOLDER,51.44975,3.93471666,62236.1064027984,NL
NL21001,130512,NLDP21001,DISCHARGE POINT  UWWTP WALCHEREN,51.44383333,3.61671666,123243.716504667,NL
NL18007,9784,NLDP18007,DISCHARGE POINT  UWWTP MASTGAT,51.63013333,4.06766666,5087.45218377188,NL
NL18009,19465,NLDP18009,DISCHARGE POINT  UWWTP DE VERSEPUT (KERKWERVE),51.6791,3.87291666,979.940107661765,NL
NL19001,12045,NLDP19001,DISCHARGE POINT  UWWTP ST MAARTENSDIJK-SCHERPENISSE,51.55548333,4.0735,9781.1738974296,NL
NL19003,11825,NLDP19003,DISCHARGE POINT  UWWTP THOLEN,51.54001666,4.23306666,2380.74696075916,NL
NL17077,90030,NLDP17077,DISCHARGE POINT  UWWTP SPIJKENISSE-ALLEMANSPOLDER,51.84363333,4.36605,2147.02451017499,NL
NL17078,103918,NLDP17078,DISCHARGE POINT  UWWTP ZWIJNDRECHT,51.8091,4.57975,385923.335390208,NL
NL17079,35770,NLDP17079,DISCHARGE POINT  UWWTP BARENDRECHT,51.83268,4.51882,156443.446480185,NL
NL18006,14708,NLDP18006,DISCHARGE POINT  UWWTP WESTERSCHOUWEN,51.68011666,3.76871666,30261.8533933922,NL
NL17070,56309,NLDP17070,DISCHARGE POINT  UWWTP HOOGVLIET,51.87381666,4.33185,12018.7520962059,NL
NL17074,1929,NLDP17074,DISCHARGE POINT  UWWTP DEN BOMMEL,51.72485,4.26636666,2399.40090918541,NL
NL17075,1598,NLDP17075,DISCHARGE POINT  UWWTP OOLTGENSPLAAT,51.67116666,4.35851666,966.952983723488,NL
NL17076,44643,NLDP17076,DISCHARGE POINT  UWWTP SCHELLUINEN,51.82976666,4.928,0,NL
NL17065,28376,NLDP17065,DISCHARGE POINT  UWWTP GROOT-AMMERS,51.94101666,4.85453333,140254.242404667,NL
NL17066,12135,NLDP17066,DISCHARGE POINT  UWWTP NUMANSDORP,51.71808333,4.41691666,2669.04637636524,NL
NL17067,4898,NLDP17067,DISCHARGE POINT  UWWTP HAASTRECHT,52.00283333,4.78426666,69715.2596344426,NL
NL17068,3382,NLDP17068,DISCHARGE POINT  UWWTP BERKENWOUDE,51.936,4.7119,3867.81685209274,NL
NL17057,11449,NLDP17057,DISCHARGE POINT  UWWTP ROZENBURG,51.91818333,4.2299,14772.0604470968,NL
NL17061,359005,NLDP17061,DISCHARGE POINT  UWWTP ROTTERDAM-DOKHAVEN,51.89865,4.465,30669.9085784554,NL
NL17062,4977,NLDP17062,DISCHARGE POINT  UWWTP HEENVLIET,51.8701,4.25035,229267.752172451,NL
NL17063,41149,NLDP17063,DISCHARGE POINT  UWWTP LEERDAM,51.88965,5.08941666,3425.37388962507,NL
NL17053,41566,NLDP17053,DISCHARGE POINT  UWWTP DE GROOTE ZAAG (KRIMPEN A/D LEK),51.89635,4.5954,78523.6887112409,NL
NL17054,4213,NLDP17054,DISCHARGE POINT  UWWTP PIERSHIL,51.81655,4.34293333,28659.9116298363,NL
NL17055,28607,NLDP17055,DISCHARGE POINT  UWWTP MIDDELHARNIS,51.77603333,4.18741666,203909.751005433,NL
NL17056,8779,NLDP17056,DISCHARGE POINT  UWWTP OUDE TONGE,51.68246666,4.17978333,6824.985911984,NL
NL17044,168328,NLDP17044,DISCHARGE POINT  UWWTP DORDRECHT,51.81985,4.73673333,7257.58968301117,NL
NL17045,33777,NLDP17045,DISCHARGE POINT  UWWTP OUD-BEIJERLAND,51.82995,4.42441666,117927.296716776,NL
NL17048,23624,NLDP17048,DISCHARGE POINT  UWWTP GOEDEREEDE,51.82336666,3.99758333,1848.90579592623,NL
NL17052,39442,NLDP17052,DISCHARGE POINT  UWWTP SLIEDRECHT,51.81751666,4.79548333,8203.77765799686,NL
NL17029,26817,NLDP17029,DISCHARGE POINT  UWWTP VIANEN,51.99941666,5.09706666,247307.042471521,NL
NL17040,19259,NLDP17040,DISCHARGE POINT  UWWTP OOSTVOORNE,51.93691666,4.1105,73806.9194320329,NL
NL17041,46147,NLDP17041,DISCHARGE POINT  UWWTP HELLEVOETSLUIS,51.8442,4.174,58489.2939194441,NL
NL17043,9709,NLDP17043,DISCHARGE POINT  UWWTP STRIJEN,51.7457,4.56323333,1614.99173876457,NL
NL17011,54855,NLDP17011,DISCHARGE POINT  UWWTP RIDDERKERK,51.87456666,4.62993333,138062.481047257,NL
NL17013,26649,NLDP17013,DISCHARGE POINT  UWWTP PAPENDRECHT,51.82421666,4.704,13140.4047737122,NL
NL17016,34421,NLDP17016,DISCHARGE POINT  UWWTP ALBLASSERDAM,51.84735,4.66446666,8380.57083308697,NL
NL17026,12308,NLDP17026,DISCHARGE POINT  UWWTP HARDINXVELD-GIESSENDAM,51.82041666,4.8346,36130.8636244051,NL
NL16011,40309.76,NLDP16011,DISCHARGE POINT  UWWTP CAP AD IJSSEL-GROENEDIJK,51.92693333,4.60066666,28834.7929727286,NL
NL17002,6822,NLDP17002,DISCHARGE POINT  UWWTP BERGAMBACHT,51.94098333,4.78855,827.563044160604,NL
NL17004,1585,NLDP17004,DISCHARGE POINT  UWWTP AMMERSTOL,51.93131666,4.80561666,6720.59508697502,NL
NL17005,6305,NLDP17005,DISCHARGE POINT  UWWTP STOLWIJK,51.98055,4.75751666,3.72281873327015,NL
NL15007,168534,NLDP15007,DISCHARGE POINT  UWWTP GROOTE LUCHT (VLAARDINGEN),51.8976,4.30333333,122917.933025911,NL
NL16009,98622,NLDP16009,DISCHARGE POINT  UWWTP NWKERK AD IJSSEL-KORTENOORD,51.9721,4.63335,81947.5855729282,NL
NL16010,211626.24,NLDP16010,DISCHARGE POINT  UWWTP CAP AD IJSSEL-KRALINGSEVEER,51.90596666,4.54318333,2039215.18350246,NL
NL14002,49546,NLDP14002,DISCHARGE POINT  UWWTP WOERDEN,52.08746666,4.85465,67228.8765711058,NL
NL14003,69570.72,NLDP14003,DISCHARGE POINT  UWWTP LEIDSCHE RIJN,52.12541666,5.05638333,10217.7025010251,NL
NL15004,73359,NLDP15004,DISCHARGE POINT  UWWTP NIEUWE WATERWEG (HOEK V HOLLAND),51.96531666,4.15035,10270.8223253191,NL
NL15005,292972,NLDP15005,DISCHARGE POINT  UWWTP HOUTRUST ('S-GRAVENHAGE),52.11513333,4.23448333,19139.2095317841,NL
NL13046,67615.68,NLDP13046,DISCHARGE POINT  UWWTP LEIDEN-NOORD,52.17323333,4.4922,13718.3840327263,NL
NL13047,22066,NLDP13047,DISCHARGE POINT  UWWTP NIEUWE WETERING,52.21451666,4.61113333,85.1837301254272,NL
NL13048,46159,NLDP13048,DISCHARGE POINT  UWWTP WADDINXVEEN RANDENBURG,52.05861666,4.66318333,11015.9815790057,NL
NL13049,49729.5,NLDP13049,DISCHARGE POINT  UWWTP ALPHEN KERK & ZANEN,52.14023333,4.66226666,9296.30039596558,NL
NL13039,77933,NLDP13039,DISCHARGE POINT  UWWTP GOUDA,52.003,4.70963333,5.82029698049036,NL
NL13041,154111,NLDP13041,DISCHARGE POINT  UWWTP KATWIJK,52.19825,4.42898333,5878.67427595798,NL
NL13042,56576,NLDP13042,DISCHARGE POINT  UWWTP BODEGRAVEN,52.08381666,4.73645,10889.4998277505,NL
NL13044,148269,NLDP13044,DISCHARGE POINT  UWWTP ZWAANSHOEK,52.30468333,4.604,50141.2770352587,NL
NL13033,86056.32,NLDP13033,DISCHARGE POINT  UWWTP LEIDEN-ZUIDWEST,52.13678333,4.47631666,15740.3263731003,NL
NL13034,28752,NLDP13034,DISCHARGE POINT  UWWTP LISSE,52.2451,4.56623333,761.192069897428,NL
NL13035,49729.5,NLDP13035,DISCHARGE POINT  UWWTP ALPHEN AD RIJN-ALPHEN NOORD,52.13306666,4.62231666,34478.9582576081,NL
NL13038,28009,NLDP13038,DISCHARGE POINT  UWWTP NIEUWVEEN,52.18895,4.7344,115.502552032471,NL
NL13010,193878.64,NLDP13010,DISCHARGE POINT  UWWTP HAARLEM-WAARDERPOLDER,52.40393333,4.6626,39898.869587183,NL
NL13012,51537.36,NLDP13012,DISCHARGE POINT  UWWTP HAARLEM-SCHALKWIJK,52.36865,4.67188333,111053.82727243,NL
NL13023,60661,NLDP13023,DISCHARGE POINT  UWWTP NOORDWIJK,52.21786666,4.45085,14214.6797237247,NL
NL13030,6078,NLDP13030,DISCHARGE POINT  UWWTP LEIMUIDEN,52.21873333,4.65456666,145.825286865234,NL
NL12026,7770,NLDP12026,DISCHARGE POINT  UWWTP OOSTHUIZEN,52.57873333,4.99478333,399.524344801903,NL
NL13003,79638,NLDP13003,DISCHARGE POINT  UWWTP VELSEN,52.46018333,4.6604,292.165075302124,NL
NL13004,25527,NLDP13004,DISCHARGE POINT  UWWTP HEEMSTEDE,52.34368333,4.64016666,48497.3466720879,NL
NL13005,107479,NLDP13005,DISCHARGE POINT  UWWTP ZWANENBURG,52.36178333,4.75556666,266120.259812271,NL
LV100266,2887.269,LV100140,Gauja,57.1361,24.2711,9696.72916161269,LV
LV100278,1025.577,LV100150,Aģe,57.3117,24.4247,8592.39382013399,LV
LV100314,2556.949,LV100184,Daugava,56.7192,24.7717,10561.4239426991,LV
LV100316,317.46,LV100186,Daugava,56.755,24.69,4761.4612833811,LV
LV100175,741242.425,LV100067,Rīgas līcis,57.0439,23.9547,616791.219574268,LV
LV100210,3114.176,LV100098,Straujupīte,57.1053,24.5197,19035.5697511248,LV
LV100211,710.19,LV100100,Mergupe,57.0019,24.97,2182.03657894023,LV
LV100220,13330.463,LV100106,Daugava,56.8631,24.26,17398.6077741478,LV
LU_STEP_809_B001,2206.71,LU_STEP_809_B001,Redange/Attert,49.76464,5.89972,11863.7114406712,LU
LU_STEP_903_B001,371.58,LU_STEP_903_B001,Erpeldange/Wiltz,49.97817,5.95685,9005.56997854309,LU
LU_STEP_911_B001,5759.49,LU_STEP_911_B001,Wiltz,49.96482,5.94903,66.7764842510223,LU
LV100124,8656.5,LV100362,Melioracijas gravis,56.8703,24.1475,2498.70316547155,LV
LU_STEP_702_B001,41138.53,LU_STEP_702_B001,Bleesbruck,49.87169,6.19082,44685.4246172457,LU
LU_STEP_710_B001,5062.64,LU_STEP_710_B001,Medernach,49.8162,6.21568,7067.4574241899,LU
LU_STEP_711_B001,2448,LU_STEP_711_B001,Mertzig,49.83628,6.01647,3080.29269089177,LU
LU_STEP_806_B003,3430.35,LU_STEP_806_B003,Rombach/Martelange,49.83894,5.74258,0,BE
LU_STEP_502_B001,2257.2,LU_STEP_502_B001,Bissen,49.79066,6.0695,12243.225117512,LU
LU_STEP_509_B001,32780.42,LU_STEP_509_B001,Mersch,49.76249,6.11148,29889.8504139408,LU
LU_STEP_603_B001,3064,LU_STEP_603_B001,Clervaux,50.04927,6.0154,3930.45404696977,LU
LU_STEP_609_B002,2294.82,LU_STEP_609_B002,Troisvierges,50.11424,6.00036,4911.81015719939,LU
LU_STEP_310_B001,3325,LU_STEP_310_B001,Reckange/Mess,49.5571,6.00948,5790.04180848412,LU
LU_STEP_314_B001,76286.775,LU_STEP_314_B001,Esch/Schifflange,49.51406,6.01729,40501.6035852879,LU
LU_STEP_403_B001,15363.04,LU_STEP_403_B001,Hesperange,49.5855,6.14846,27804.2423889739,LU
LU_STEP_406_B001,36679.075,LU_STEP_406_B001,Uebersyren,49.640612,6.277974,14629.555110395,LU
LU_STEP_209_B001,14886.63,LU_STEP_209_B001,Mamer,49.62529,6.04104,13830.5626133494,LU
LU_STEP_211_B001,4402.875,LU_STEP_211_B001,Steinfort,49.664022,5.910806,11134.9408425586,LU
LU_STEP_309_B001,65995.11,LU_STEP_309_B001,Petange,49.55792,5.85458,52863.0903553516,LU
LU_STEP_1_B001,152954.12,LU_STEP_1_B001,Beggen,49.65025,6.13254,103014.76377809,LU
LU_STEP_205_B001,2471.04,LU_STEP_205_B001,Hobscheid,49.68455,5.92345,7630.18247335404,LU
LU_STEP_206_B001,2258.19,LU_STEP_206_B001,Kehlen,49.65579,6.02479,3486.37820581906,LU
LU_STEP_208_B001,5033.705,LU_STEP_208_B001,Kopstal,49.67253,6.0797,3337.80117836595,LU
LU_STEP_124_B001,16484.49,LU_STEP_124_B001,Grevenmacher,49.68467,6.45151,6283.10049103945,LU
LU_STEP_125_B005,4232.73,LU_STEP_125_B005,Junglinster,49.72176,6.25037,2522.27935127914,LU
LU_STEP_131_B002,7023,LU_STEP_131_B002,Emerange,49.48373,6.29777,31852.2075304212,LU
LU_STEP_111_B001,3341,LU_STEP_111_B001,Beaufort,49.82832,6.29792,3130.13805492222,LU
LU_STEP_115_B001,18313.02,LU_STEP_115_B001,Echternach,49.81252,6.43633,26523.2056442788,LU
LU_STEP_122_B001,2021.84,LU_STEP_122_B001,Biwer/Wecker,49.70412,6.40366,3233.92091962323,LU
LU_STEP_122_B002,3988,LU_STEP_122_B002,Betzdorf,49.69015,6.35755,6517.29020681046,LU
LT-AG-064-WWTP-01,1119.016,LT-AG-064-WWTP-01-DP-01,Eisiskiu m. isleistuvas,54.1751,24.9875,4943.35799808428,LT
LT-AG-065-WWTP-01,1779.0032,LT-AG-065-WWTP-01-DP-01,Ariogalos m. isleistuvas,55.2519,23.4844,22093.7218188467,LT
LT-AG-072-WWTP-01,2183,LT-AG-072-WWTP-01-DP-01,Juodkrantes m. isleistuvas,55.5562,21.1275,2126.77530705987,LT
LU_STEP_103_B001,4580,LU_STEP_103_B001,Vianden,49.92482,6.21789,18634.6257116711,LU
LT-AG-059-WWTP-01,585.945,LT-AG-059-WWTP-01-DP-01,Raudondvario m. isleistuvas,54.9306,23.7728,361659.570714725,LT
LT-AG-060-WWTP-01,2181.933,LT-AG-060-WWTP-01-DP-01,Rietavo m. isleistuvas,55.7154,21.9368,5292.41191505641,LT
LT-AG-061-WWTP-01,9242,LT-AG-061-WWTP-01-DP-01,Ruklos m. isleistuvas,55.0573,24.3825,182138.041649773,LT
LT-AG-062-WWTP-01,4147.1408,LT-AG-062-WWTP-01-DP-01,Ziezmariu m. isleistuvas,54.8021,24.4314,20551.1473002783,LT
LT-AG-055-WWTP-01,3840.8125,LT-AG-055-WWTP-01-DP-01,Lazdiju m. isleistuvas,54.2384,23.523,6691.13040301204,LT
LT-AG-056-WWTP-01,3418.0806,LT-AG-056-WWTP-01-DP-01,Svencioniu m. isleistuvas,55.1175,26.1572,5416.36256253067,LT
LT-AG-057-WWTP-01,3990.9074,LT-AG-057-WWTP-01-DP-01,Kalvariju m. isleistuvas,54.4186,23.2471,16095.32921426,LT
LT-AG-058-WWTP-01,6363.2166,LT-AG-058-WWTP-01-DP-01,Skaidiskiu m. isleistuvas,54.6095,25.3809,425.896953475196,LT
LT-AG-050-WWTP-01,11576.5005,LT-AG-050-WWTP-01-DP-01,Pabrades m. isleistuvas,54.9657,25.7282,9664.43848690251,LT
LT-AG-052-WWTP-01,6244.88,LT-AG-052-WWTP-01-DP-01,Pakruojo m. isleistuvas,56.0122,23.8407,16289.3709637523,LT
LT-AG-053-WWTP-01,3347.952,LT-AG-053-WWTP-01-DP-01,Ignalinos m. isleistuvas,55.3272,26.1664,298.314301490784,LT
LT-AG-054-WWTP-01,10449.2148,LT-AG-054-WWTP-01-DP-01,Silales m. isleistuvas,55.4761,22.1596,8374.3567658728,LT
LT-AG-045-WWTP-01,3049.872,LT-AG-045-WWTP-01-DP-01,Sakiu m. nuoteku isleistuvas,54.9518,23.005,10195.040199101,LT
LT-AG-046-WWTP-01,7464.8154,LT-AG-046-WWTP-01-DP-01,Salcininku m. nuoteku isleistuvas,54.2948,25.3934,8997.8938459903,LT
LT-AG-048-WWTP-01,18974.2124,LT-AG-048-WWTP-01-DP-01,Nemencines m. nuoteku isleistuvas,54.8597,25.4413,10355.1614696416,LT
LT-AG-049-WWTP-01,6154.6832,LT-AG-049-WWTP-01-DP-01,Svencioneliu m. isleistuvas,55.1466,25.9893,15651.3302109707,LT
LT-AG-041-WWTP-01,4307.8035,LT-AG-041-WWTP-01-DP-01,Moletu m. nuoteku isleistuvas,55.2227,25.3837,5609.33788108826,LT
LT-AG-042-WWTP-01,3449.98,LT-AG-042-WWTP-01-DP-01,Kazlu Rudos m. nuoteku isleistuvas,54.7499,23.4466,7712.8195268875,LT
LT-AG-043-WWTP-01,4055.8889,LT-AG-043-WWTP-01-DP-01,Skuodo m. nuoteku isleistuvas,56.2824,21.5061,124367.292021163,LT
LT-AG-044-WWTP-01,3736.0288,LT-AG-044-WWTP-01-DP-01,Sirvintu m. nuoteku isleistuvas,55.053,24.9395,12871.7815956776,LT
LT-AG-037-WWTP-01,2548.0728,LT-AG-037-WWTP-01-DP-01,Kupiskio m. isleistuvas,55.8348,24.9405,13612.5062358677,LT
LT-AG-038-WWTP-01,4692.138,LT-AG-038-WWTP-01-DP-01,Joniskio m. isleistuvas,56.2559,23.6286,3591.92490510643,LT
LT-AG-039-WWTP-01,5942.265,LT-AG-039-WWTP-01-DP-01,Praveniskiu m. isleistuvas,54.9203,24.2193,1868.85035067797,LT
LT-AG-040-WWTP-01,1978.0866,LT-AG-040-WWTP-01-DP-01,Zarasu m. nuoteku isleistuvas,55.7376,26.2892,9285.13849120028,LT
LT-AG-033-WWTP-01,17378.29,LT-AG-033-WWTP-01-DP-01,Kelmes m. isleistuvas,55.625,22.9538,16263.4623803445,LT
LT-AG-034-WWTP-01,11384.981,LT-AG-034-WWTP-01-DP-01,Varenos m. isleistuvas,54.2189,24.5533,9688.91104495525,LT
LT-AG-035-WWTP-01,5001.1959,LT-AG-035-WWTP-01-DP-01,Raseiniu m. isleistuvas,55.3735,23.1103,7138.35323940963,LT
LT-AG-036-WWTP-01,8898.651,LT-AG-036-WWTP-01-DP-01,Vilkaviskio m. isleistuvas,54.6594,23.0171,16889.0459140711,LT
LT-AG-029-WWTP-01,16925.0478,LT-AG-029-WWTP-01-DP-01,Anyksciu m. isleistuvas,55.5076,25.0706,47689.3201953182,LT
LT-AG-030-WWTP-01,7313.1042,LT-AG-030-WWTP-01-DP-01,N. Akmenes m. isleistuvas,56.3071,22.875,1798.78489465266,LT
LT-AG-031-WWTP-01,15719.6348,LT-AG-031-WWTP-01-DP-01,Birstono-Prienu m. isleistuvas,54.6231,24.0623,41858.3903785273,LT
LT-AG-032-WWTP-01,15901.3044,LT-AG-032-WWTP-01-DP-01,Jurbarko m. isleistuvas,55.0658,22.7536,41794.8722409266,LT
LT-AG-025-WWTP-01,8103.3264,LT-AG-025-WWTP-01-DP-01,Elektrenu-Vievio m. isleistuvas,54.9707,24.8512,38.617404460907,LT
LT-AG-026-WWTP-01,10757.9538,LT-AG-026-WWTP-01-DP-01,Traku-Lentvario m. isleistuvas,54.6636,25.0481,5309.47269329429,LT
LT-AG-027-WWTP-01,22146.7296,LT-AG-027-WWTP-01-DP-01,Kaisiadoriu m. isleistuvas,54.8723,24.4462,9173.70760710258,LT
LT-AG-028-WWTP-01,18312.5808,LT-AG-028-WWTP-01-DP-01,Palangos m. isleistuvas,56.0603,21.0672,25604.3002364207,LT
LT-AG-021-WWTP-01,43622.1565,LT-AG-021-WWTP-01-DP-01,Kretingos m. isleistuvas,55.8685,21.2038,9324.54920983687,LT
