ID,NAME,LAT,LONG,ELEVATION
1,hCardona,41.92066622,1.696075185,395
2,hCastellarHug,42.2597793,1.977477661,933
3,hColomers,42.07686002,2.991162733,18
4,hFogarsSelva,41.73895835,2.693885954,36
5,hGuixers,42.13594346,1.673105973,841
6,hDarniusBoadella,42.34058878,2.833225165,156
7,hFoix,41.25561732,1.651034658,101
8,hBaells,42.12201452,1.878559556,629
9,hSau,41.96862496,2.413554059,425
10,hSiurana,41.24964238,0.913800784,462
11,hAger,42.05176672,0.73911934,1481
12,hAitona,41.48697148,0.460210126,97
13,hAlbesa,41.76006848,0.671002705,261
14,hAlcanar,40.5571563,0.523268672,22
15,hAlcarras2,41.56509318,0.550269324,124
16,hAlcarras,41.57167006,0.551220041,132
17,hAlgerri2,41.81972281,0.588440568,302
18,hAlgerri,41.80012155,0.648597542,299
19,hAlguaire,41.74279068,0.535742689,371
20,hAlinya,42.17426207,1.427747271,1161
21,hAltAneu,42.64664121,0.983623976,2240
22,hAmposta,40.70575044,0.629030058,2
23,hAngles,41.96012025,2.63176987,150
24,hAnglesola,41.69007955,1.043695096,291
25,hArbucies1,41.842461,2.42659594,859
26,hArbucies2,41.8400619,2.418776362,18
27,hArres,42.77026914,0.732721176,2243
28,hArtes,41.79243991,1.935570375,281
29,hArtesa,41.91598819,1.045369955,361
30,hAsco,41.19638454,0.512204068,249
31,hBadalona2,41.46681186,2.244709968,78
32,hBadalona,41.47586554,2.251790958,120
33,hBanyoles,42.11366986,2.791581201,162
34,hBarcelona1,41.38381697,2.167668758,13
35,hBarcelona2,41.39395049,2.204608937,4
36,hBarcelona3,41.41858513,2.123895211,409
37,hBarcelona4,41.37920641,2.105421052,82
38,hBatea,41.08672929,0.318925381,382
39,hBegues,41.28853959,1.908476795,572
40,hBellvis,41.67342552,0.812897593,197
41,hBenissanet,41.06278121,0.634691922,32
42,hBerga,42.10721975,1.827465851,1139
43,hBlancafort,41.43651336,1.16048732,428
44,hBotarell2,41.13742466,1.024231866,148
45,hBotarell,41.15403566,0.997729671,229
46,hCabanes,42.3063787,2.954828468,31
47,hCabrils,41.51751699,2.377472408,79
48,hCaldes,41.61261678,2.168274635,176
49,hCaldes2,41.61280376,2.169220398,175
50,hCamarasa,41.91780346,0.8816943,669
51,hCanyelles,41.28800681,1.721948664,148
52,hCassa,41.87477182,2.927162998,181
53,hCastell,41.80901302,3.031746298,14
54,hCastellbisbal,41.47887927,1.975463497,145
55,hCastelldans,41.52913852,0.752983885,228
56,hCastellnouBages,41.83087346,1.847094854,506
57,hCastellnouSeana,41.65677414,0.951749892,263
58,hCastelloEmpuries,42.23817973,3.095372489,4
59,hCerdanyola,41.48405069,2.12742192,84
60,hCervera,41.6757222,1.295806637,557
61,hClariana,41.953766,1.585108748,692
62,hConstanti,41.17047513,1.169917801,108
63,hCruilles,41.92055578,2.917197854,344
64,hCunit,41.20185982,1.633426797,17
65,hDas,42.3878125,1.867668594,1097
66,hDeltebre,40.78771811,0.741662843,0
67,hDosrius,41.61991606,2.445148514,459
68,hMasroig,41.1222639,0.721353503,139
69,hMontmell,41.34235448,1.486292839,549
70,hPerello,40.87311862,0.715634565,173
71,hPoal,41.67299547,0.877358769,223
72,hPontSuert,42.39771913,0.743757573,823
73,hPontVilomara,41.67532853,1.875608327,283
74,hPratLlobregat,41.34045551,2.080219118,8
75,hVendrell,41.21541451,1.52033382,61
76,hAlamus,41.59522791,0.735070829,230
77,hHostaletsPierola,41.53139597,1.807717573,312
78,hPlansSio,41.68823407,1.203677258,428
79,hEspolla,42.38456053,3.007033775,84
80,hEspot,42.53523366,1.050531936,2552
81,hFalset2,41.15075835,0.823574307,349
82,hFalset,41.15348076,0.81988532,356
83,hFogarsMontclus2,41.77362214,2.437737571,1667
84,hFogarsMontclus,41.75503015,2.465722105,1216
85,hFontrubi,41.43266407,1.624227982,411
86,hFornells,41.91477887,2.819735293,96
87,hGandesa,41.06580941,0.430057842,349
88,hGimenells,41.65711122,0.391986377,260
89,hGirona2,41.96746381,2.811283666,81
90,hGirona,41.98222744,2.806858174,72
91,hGisclareny,42.26476292,1.762143999,1390
92,hGolmes,41.63635404,0.924519614,261
93,hGuardiolaBergueda2,42.22902649,1.876727733,717
94,hGuardiolaBergueda,42.23412339,1.874831612,787
95,hGurb,41.95226574,2.232755939,509
96,hHorta,40.95433376,0.309085875,503
97,hIsona,42.13932006,1.038997965,690
98,hAldea,40.76952965,0.616218846,64
99,hAmetllaMar,40.90912966,0.764308144,96
100,hEspluga,41.39315529,1.099095071,439
101,hBisbalEmporda,41.97742178,3.035354374,30
102,hBisbalPenedes,41.27319906,1.468812853,180
103,hComa,42.18524458,1.525707241,2294
104,hGranadella,41.36000487,0.667601735,505
105,hLlacuna,41.47945684,1.535278491,589
106,hPoblaSegur,42.23929637,0.964217276,514
107,hQuar,42.08077637,1.96202869,859
108,hSeuUrgell,42.3707942,1.432727825,848
109,hTallada,42.0541921,3.062020138,15
110,hVallBas,42.14573351,2.454570845,461
111,hVallBoi,42.46495692,0.871486227,2311
112,hLlosses,42.15085459,2.199147919,698
113,hVallsValira,42.51753185,1.365020712,2394
114,hLladorre,42.70042669,1.272091678,2400
115,hLladurs,42.0884068,1.4284066,775
116,hLleida1,41.59822741,0.648553652,165
117,hLleida2,41.59989495,0.645541422,161
118,hLleida3,41.68345424,0.460723172,290
119,hLloret,41.72346015,2.842813797,75
120,hMaials,41.35809638,0.483076968,355
121,hMalgrat2,41.64908131,2.752086882,3
122,hMalgrat,41.64710023,2.756537656,2
123,hMargalef,41.2852973,0.753791239,405
124,hMasBarberans2,40.71480302,0.415154258,211
125,hMasBarberans,40.71831922,0.399273226,240
126,hMediona,41.48492084,1.69190182,328
127,hMeranges,42.46740974,1.779421073,2265
128,hMiralcamp,41.60996072,0.875503049,262
129,hMollerussa,41.61815978,0.871777223,245
130,hMollo,42.37735768,2.414855338,1404
131,hMonistrol,41.59555413,1.836774267,915
132,hMontella,42.28881879,1.713131008,2348
133,hMontmaneu,41.60256359,1.400703282,784
134,hMontmelo,41.54910786,2.245455484,74
135,hMuntanyola,41.87812207,2.178025219,811
136,hNavata,42.22792437,2.862956813,151
137,hNulles,41.25121485,1.298390542,240
138,hOdena,41.58527017,1.653000084,331
139,hOliana,42.07674961,1.315217161,492
140,hOliola,41.87705472,1.154231302,446
141,hOlot,42.1881312,2.470967323,432
142,hOrganya,42.21630854,1.331320224,568
143,hOris,42.07405238,2.20886639,625
144,hOs,41.87743163,0.758533247,546
145,hParets,41.56729124,2.226138009,106
146,hParlava,42.02146305,3.060212741,16
147,hPinos,41.79646293,1.521197,634
148,hPort,41.31723154,2.130905135,4
149,hPortbou,42.43505378,3.166429339,195
150,hPrades,41.31397188,0.997524452,976
151,hPrades2,41.31481068,0.98160998,926
152,hQueralbs,42.39862265,2.155214636,1972
153,hRellinars,41.6327216,1.917432556,424
154,hRibaRoja,41.2439519,0.43277583,61
155,hRiudecanyes,41.12269146,0.969499856,170
156,hRoquetes,40.77051482,0.297363439,1100
157,hRoses,42.27053272,3.182523882,25
158,hSabadell,41.56562666,2.069596759,259
159,hBoi,42.04109412,2.119346323,773
160,hSantCarles,40.62679355,0.662328005,1
161,hSantCugat,41.48311015,2.07955809,157
162,hSantJaume,40.70734383,0.83424695,1
163,hSantLlorenc,41.68135426,2.026600704,529
164,hSantMartiRiucorb,41.57230448,1.088393168,414
165,hSantMartiSarroca,41.37517655,1.63000818,258
166,hSantPau,42.2584787,2.364429353,853
167,hSantPereRibes,41.27845618,1.804703017,159
168,hSantPerePescador,42.17665711,3.095740108,3
169,hSantQuirze,42.09642376,2.214018089,669
170,hSantSadurni,41.43384238,1.794256277,165
171,hSantSalvador,41.67418051,1.767183925,347
172,hFarners2,41.86471258,2.664501271,164
173,hFarners,41.86488356,2.66445218,164
174,hQueralt,41.52985522,1.367064185,715
175,hSeros2,41.46379457,0.427650104,90
176,hSeros,41.46043353,0.407130303,97
177,hSetcases,42.42193946,2.252532623,2356
178,hSolsona,41.98765573,1.511648903,691
179,hSort,42.40527536,1.129938005,679
180,hTagamanent,41.74765415,2.302826152,1030
181,hTarragona,41.1038862,1.200967403,6
182,hTarrega,41.66727997,1.162939982,435
183,hTivissa,41.04342878,0.740315579,317
184,hTornabous,41.68835036,1.044756801,291
185,hTorredembarra,41.14662156,1.418496224,2
186,hTorresSegre,41.51918531,0.548047791,214
187,hTorresSegre2,41.52603202,0.527115324,142
188,hTorroellaFluvia,42.1825812,3.058754822,7
189,hTorroellaFluvia2,42.18178716,3.061563433,7
190,hTorroellaMontgri,42.02300193,3.156810545,5
191,hTorroja,41.21373013,0.809977123,330
192,hTremp,42.16252407,0.888133292,474
193,hUlldecona,40.62717597,0.369949079,211
194,hUlldemolins2,41.3200401,0.88561879,686
195,hUlldemolins,41.3190487,0.878733458,631
196,hVacarisses,41.59239847,1.914735119,345
197,hVallfogona,41.78438129,0.827961122,238
198,hVallirana,41.38076264,1.932935318,217
199,hVentallo,42.1502899,3.064933915,5
200,hVic,41.93582219,2.238562126,496
201,hVielha2,42.63850113,0.778762509,2239
202,hVielha,42.69888849,0.794105045,998
203,hVilarodona2,41.30891452,1.364801945,294
204,hVilarodona,41.30725303,1.362609678,285
205,hVilablareix,41.95347613,2.776068281,115
206,hViladecans,41.29846393,2.038550692,2
207,hViladrau,41.84502747,2.388099793,776
208,hVilafranca,41.36615109,1.728885633,239
209,hVilanovaMeia,41.99544363,1.025554425,592
210,hVilanovaSau,41.97554454,2.398366828,425
211,hVilanovaSegria,41.71455288,0.628401915,222
212,hVilanovaValles,41.55050498,2.286530991,98
213,hVilassar,41.51171214,2.386767277,44
214,hVilobi,41.88544631,2.741050621,118
215,hVinebre,41.18431377,0.594328349,49
216,hVinyols,41.08086743,1.066150831,31
